stop_id,stop_name,stop_lat,stop_lon,zone_id,stop_url,location_type,parent_station,wheelchair_boarding,level_id,platform_code
U50S1,"Budějovická",50.04441,14.44879,"P",,1,,1,,
U52S1,"Chodov",50.03167,14.49096,"P",,1,,1,,
U75S1,"Kolbenova",50.11040,14.51640,"P",,1,,1,,
U78S1,"Ládví",50.12659,14.46945,"P",,1,,1,,
U100S1,"Vltavská",50.10030,14.43849,"P",,1,,1,,
U106S1,"Opatov",50.02789,14.50919,"P",,1,,2,,
U115S1,"Nádraží Holešovice",50.10892,14.44007,"P",,1,,1,,
U118S1,"Flora",50.07828,14.46259,"P",,1,,2,,
U135S1,"Hloubětín",50.10669,14.53639,"P",,1,,1,,
U142S1,"Hlavní nádraží",50.08351,14.43414,"P",,1,,1,,
U157S1,"Bořislavka",50.09834,14.36283,"P",,1,,1,,
U163S1,"Hradčanská",50.09744,14.40316,"P",,1,,2,,
U190S1,"I. P. Pavlova",50.07433,14.43031,"P",,1,,1,,
U209S1,"Jiřího z Poděbrad",50.07772,14.45075,"P",,1,,2,,
U228S1,"Kačerov",50.04184,14.45931,"P",,1,,2,,
U237S1,"Karlovo náměstí",50.07459,14.41698,"P",,1,,2,,
U258S1,"Lužiny",50.04450,14.33044,"P",,1,,1,,
U286S1,"Háje",50.03078,14.52697,"P",,1,,1,,
U306S1,"Nemocnice Motol",50.07539,14.34152,"P",,1,,1,,
U321S1,"Dejvická",50.10047,14.39317,"P",,1,,1,,
U332S1,"Střížkov",50.12617,14.48954,"P",,1,,1,,
U360S1,"Malostranská",50.09172,14.40921,"P",,1,,2,,
U385S1,"Pankrác",50.05103,14.43968,"P",,1,,1,,
U400S1,"Muzeum",50.07986,14.43138,"P",,1,,1,,
U458S1,"Smíchovské nádraží",50.06131,14.40911,"P",,1,,1,,
U462S1,"Nádraží Veleslavín",50.09586,14.34833,"P",,1,,1,,
U474S1,"Vysočanská",50.11006,14.50108,"P",,1,,1,,
U476S1,"Náměstí Míru",50.07531,14.43978,"P",,1,,2,,
U480S1,"Náměstí Republiky",50.08883,14.43060,"P",,1,,2,,
U507S1,"Petřiny",50.08684,14.34494,"P",,1,,1,,
U510S1,"Českomoravská",50.10616,14.49169,"P",,1,,2,,
U527S1,"Vyšehrad",50.06314,14.43052,"P",,1,,2,,
U529S1,"Palmovka",50.10398,14.47480,"P",,1,,1,,
U539S1,"Národní třída",50.07975,14.42029,"P",,1,,1,,
U597S1,"Pražského povstání",50.05686,14.43331,"P",,1,,2,,
U601S1,"Roztyly",50.03767,14.47674,"P",,1,,1,,
U602S1,"Nové Butovice",50.05084,14.35215,"P",,1,,1,,
U603S1,"Prosek",50.11925,14.49861,"P,0",,1,,1,,
U655S1,"Invalidovna",50.09680,14.46315,"P",,1,,2,,
U675S1,"Kobylisy",50.12412,14.45425,"P",,1,,1,,
U685S1,"Jinonice",50.05421,14.36991,"P",,1,,2,,
U689S1,"Florenc",50.09050,14.43941,"P",,1,,1,,
U703S1,"Staroměstská",50.08820,14.41767,"P",,1,,2,,
U713S1,"Strašnická",50.07307,14.49051,"P",,1,,1,,
U758S1,"Křižíkova",50.09255,14.45134,"P",,1,,2,,
U818S1,"Rajská zahrada",50.10685,14.56050,"P",,1,,1,,
U897S1,"Černý Most",50.10897,14.57683,"P",,1,,1,,
U921S1,"Želivského",50.07828,14.47548,"P",,1,,2,,
U953S1,"Skalka",50.06843,14.50786,"P",,1,,1,,
U957S1,"Radlická",50.05812,14.38776,"P",,1,,2,,
U1000S1,"Letňany",50.12625,14.51641,"P,0",,1,,1,,
U1007S1,"Luka",50.04567,14.32134,"P",,1,,1,,
U1040S1,"Anděl",50.06995,14.40377,"P",,1,,1,,
U1071S1,"Depo Hostivař",50.07553,14.51538,"P",,1,,1,,
U1072S1,"Můstek",50.08347,14.42397,"P",,1,,1,,
U1140S1,"Stodůlky",50.04670,14.30654,"P",,1,,1,,
U1141S1,"Zličín",50.05326,14.29110,"P",,1,,1,,
U1154S1,"Hůrka",50.05001,14.34279,"P",,1,,1,,
U50S1E7,"ul. Olbrachtova, BUS Brumlovka",50.04447,14.44808,,,2,U50S1,2,,
U50S1E1,"ul. Antala Staška, BUS Zelený pruh",50.04336,14.44983,,,2,U50S1,2,,
U50S1E2,"ul. Antala Staška, Úřad MČ Praha 4",50.04319,14.45014,,,2,U50S1,2,,
U50S1E5,"Budějovická ul., Pacovská ul.",50.04500,14.44775,,,2,U50S1,2,,
U50S1E6,"ul. Olbrachtova, BUS Dvorce",50.04464,14.44781,,,2,U50S1,2,,
U50S1E3,"ul. Antala Staška, Úřad MČ Praha 4",50.04367,14.45086,,,2,U50S1,1,,
U50S1E9,"ul. Budějovická",50.04402,14.45013,,,2,U50S1,2,,
U50S1E10,"DBK",50.04398,14.44931,,,2,U50S1,1,,
U50S1E11,"Lidl",50.04458,14.44900,,,2,U50S1,1,,
U52S1E1,"BUS Bohdalec, Vršovice",50.03108,14.49181,,,2,U52S1,1,,
U52S1E3,"BUS Bohdalec, Vršovice",50.03106,14.49169,,,2,U52S1,2,,
U52S1E5,"Starochodovská ul., Chodovská tvrz",50.03122,14.49228,,,2,U52S1,2,,
U52S1E4,"BUS Písnice, Lhotka",50.03083,14.49128,,,2,U52S1,1,,
U52S1E2,"BUS Písnice, Lhotka",50.03081,14.49119,,,2,U52S1,2,,
U52S1E6,"Centrum Chodov",50.03089,14.49111,,,2,U52S1,1,,
U52S1E7,"Centrum Chodov",50.03133,14.49185,,,2,U52S1,2,,
U75S1E1,"TRAM Lehovec, Palmovka",50.11044,14.51519," "," ",2,U75S1,0,U75L0,
U75S1E3,"Kolbenova ul.",50.11042,14.51491,,,2,U75S1,1,,
U75S1E2,"TRAM Lehovec",50.11042,14.51558,,,2,U75S1,1,,
U78S1E8,"Střelničná ul., Opálkova ul.",50.12661,14.46883,,,2,U78S1,2,,
U78S1E7,"Sídliště Ládví, OD Ládví",50.12683,14.46969,,,2,U78S1,2,,
U78S1E6,"Střelničná ul., BUS Bohnice",50.12664,14.47022,,,2,U78S1,2,,
U78S1E4,"TRAM centrum",50.12647,14.47003,,,2,U78S1,2,,
U78S1E1,"Střelničná ul., BUS Ďáblice",50.12619,14.46947,,,2,U78S1,1,,
U78S1E2,"Střelničná ul., Parkoviště P+R",50.12625,14.47033,,,2,U78S1,1,,
U78S1E5,"Střelničná ul, obchodní pasáž",50.12672,14.46986,,,2,U78S1,1,,
U78S1E3,"TRAM Sídliště Ďáblice",50.12639,14.47003,,,2,U78S1,2,,
U100S1E2,"Hlávkův most, Štvanice",50.09906,14.43817,,,2,U100S1,2,,
U100S1E4,"TRAM Palmovka, Ohrada",50.09889,14.43856,,,2,U100S1,2,,
U100S1E5,"Praha-Bubny",50.09900,14.43869,,,2,U100S1,2,,
U100S1E1,"TRAM Letná, Dejvice",50.09919,14.43822,,,2,U100S1,2,,
U100S1E6,"TRAM Žižkov, centrum",50.09922,14.43847,,,2,U100S1,2,,
U100S1E3,"TRAM Palmovka, Ohrada",50.09897,14.43833,,,2,U100S1,1,,
U100S1E7,"vlaková zastávka Praha-Bubny Vltavská",50.09949,14.43855,,,2,U100S1,2,,
U106S1E2,"Starochodovská ul.",50.02767,14.50753,,,2,U106S1,2,,
U106S1E5,"Sídliště, Úřad MČ Praha 11",50.02778,14.50844,,,2,U106S1,2,,
U106S1E4,"linky PID, výstup",50.02756,14.50842,,,2,U106S1,2,,
U106S1E6,"BUS Spořilov, Vršovice",50.02808,14.50828,,,2,U106S1,2,,
U106S1E3,"BUS Čestlice, Průhonice",50.02739,14.50747,,,2,U106S1,2,,
U106S1E1,"BUS Šeberov, Kunratice",50.02794,14.50747,,,2,U106S1,2,,
U106S1E7,"Starochodovská ul.",50.02800,14.50733,,,2,U106S1,2,,
U106S1E8,"Sídliště, Úřad MČ Praha 11",50.02811,14.50833,,,2,U106S1,2,,
U115S1E6,"BUS Terminal, AN Holešovice",50.10972,14.44047,,,2,U115S1,1,,
U115S1E5,"E4 BUS Terminal, ul. Vrbenského",50.10964,14.44042,,,2,U115S1,1,,
U115S1E7,"E5 Praha-Holešovice Railway Station",50.10978,14.44014,,,2,U115S1,1,,
U115S1E1,"E1 ul. Plynární, TRAM Výstaviště",50.10831,14.44042,,,2,U115S1,2,,
U115S1E2,"E2 TRAM Ortenovo nám.",50.10831,14.44064,,,2,U115S1,2,,
U115S1E3,"E3 BUS Zoo, Bulovka",50.10836,14.44086,,,2,U115S1,2,,
U115S1E8,"E6 TRAM Troja, Kobylisy",50.10964,14.43931,,,2,U115S1,1,,
U118S1E1,"BUS Vysočany, Prosek",50.07819,14.46094,,,2,U118S1,2,,
U118S1E3,"Vinohradská tř., Olšanské hřbitovy",50.07803,14.46133,,,2,U118S1,2,,
U118S1E5,"TRAM Náměstí Míru, Anděl",50.07792,14.46144,,,2,U118S1,2,,
U118S1E4,"TRAM Palmovka, Strašnice",50.07783,14.46144,,,2,U118S1,2,,
U118S1E2,"Jičínská ul.",50.07753,14.46111,,,2,U118S1,2,,
U118S1E6,"Vinohradská tř., Chrudimská ul.",50.07769,14.46131,,,2,U118S1,2,,
U118S1E7,"Atrium",50.07808,14.46130,,,2,U118S1,2,,
U135S1E9,"Mochovská ul.",50.10669,14.53767,," ",2,U135S1,0,U135L0,
U135S1E8,"Sídliště Hloubětín",50.10645,14.53793,," ",2,U135S1,0,U135L0,
U135S1E1,"Poděbradská ul., BUS Letňany",50.10642,14.53724,," ",2,U135S1,0,U135L0,
U135S1E3,"TRAM Palmovka",50.10624,14.53757,," ",2,U135S1,0,U135L0,
U135S1E4,"TRAM Lehovec",50.10617,14.53761,," ",2,U135S1,0,U135L0,
U135S1E5,"BUS Kyje, Černý Most",50.10600,14.53778,," ",2,U135S1,0,U135L0,
U135S1E7,"BUS Kyje, Černý Most",50.10600,14.53742,," ",2,U135S1,0,U135L0,
U142S1E2,"Opletalova ul.",50.08379,14.43396,,,2,U142S1,1,,
U142S1E3,"Masarykovo nádr., Hybernská ul., TRAM",50.08406,14.43416,,,2,U142S1,1,,
U142S1E4,"Parking Wilsonova, BUS (sever)",50.08385,14.43500,,,2,U142S1,2,,
U142S1E5,"Wilsonova, BUS dálkové / intercity",50.08371,14.43551,,,2,U142S1,2,,
U142S1E6,"Nástupiště (sever)",50.08361,14.43570,,,2,U142S1,1,,
U142S1E1,"Václavské nám., Státní opera",50.08321,14.43354,,,2,U142S1,1,,
U142S1E7,"Nástupiště / platforms",50.08318,14.43530,,,2,U142S1,1,,
U142S1E8,"Nástupiště (jih)",50.08271,14.43504,,,2,U142S1,1,,
U142S1E9,"Parking Wilsonova, BUS (jih)",50.08291,14.43431,,,2,U142S1,2,,
U142S1E10,"Wilsonova, BUS Airport",50.08274,14.43480,,,2,U142S1,2,,
U142S1E11,"Historická budova nádraží",50.08331,14.43541,,,2,U142S1,2,,
U142S1E12,"Historická budova nádraží",50.08306,14.43520,,,2,U142S1,2,,
U142S1E13,"Parking Wilsonova, BUS",50.08339,14.43460,,,2,U142S1,1,,
U157S1E6,"Horoměřická ul., ul. Liberijská",50.09815,14.36476,,,2,U157S1,2,U157L0,
U157S1E5,"Horoměřická ul., Evropská ul.",50.09838,14.36456,,,2,U157S1,2,U157L0,
U157S1E10,"Horoměřická ul., TRAM Dejvice",50.09854,14.36439,,,2,U157S1,2,U157L0,
U157S1E8,"Horoměřická ul., BUS Hanspaulka",50.09873,14.36452,,,2,U157S1,2,U157L0,
U157S1E4,"Sídliště Červený Vrch, Africká ul.",50.09819,14.36217,,,2,U157S1,1,U157L0,
U157S1E1,"Sídliště Červený Vrch, Arabská ul.",50.09854,14.36220,,,2,U157S1,1,U157L0,
U157S1E9,"Horoměřická ul., TRAM Červený Vrch",50.09863,14.36452,,,2,U157S1,2,U157L0,
U157S1E3,"Sídliště Červený Vrch, Evropská ul.",50.09820,14.36210,,,2,U157S1,1,U157L0,
U163S1E2,"ul. Badeniho",50.09717,14.40536,,,2,U163S1,2,,
U163S1E1,"Pražský hrad",50.09700,14.40442,,,2,U163S1,2,,
U163S1E3,"TRAM Holešovice, centrum, Letná",50.09712,14.40412,,,2,U163S1,2,,
U163S1E4,"TRAM Petřiny, Střešovice, Břevnov",50.09726,14.40406,,,2,U163S1,2,,
U163S1E5,"BUS, Dálková doprava",50.09740,14.40396,,,2,U163S1,2,,
U163S1E6,"ul. Milady Horákové",50.09750,14.40452,,,2,U163S1,2,,
U163S1E7,"ul. Milady Horákové",50.09740,14.40419,,,2,U163S1,1,,
U163S1E8,"Praha-Dejvice, BUS Hanspaulka",50.09779,14.40413,,,2,U163S1,2,,
U190S1E4,"E4 ul. Ječná, ul. Sokolská",50.07536,14.42992,," ",2,U190S1,0,U190L0,
U190S1E1,"E1 ul. Lublaňská, Tylovo nám.",50.07534,14.43063,," ",2,U190S1,0,U190L0,
U190S1E2,"E2 ul. Jugoslávská, TRAM Náměstí Míru",50.07547,14.43058,," ",2,U190S1,0,U190L0,
U190S1E3,"E3 Nám. I. P. Pavlova, TRAM Karlovo nám.",50.07556,14.43050,," ",2,U190S1,0,U190L0,
U190S1E5,"E5 ul. Legerova, ul. Rumunská",50.07410,14.43049,," ",2,U190S1,1,U190L0,
U209S1E1,"Slavíkova ul.",50.07767,14.44897,,,2,U209S1,2,,
U209S1E5,"Nám. Jiřího z Pod., TRAM Muzeum",50.07728,14.44950,,,2,U209S1,2,,
U209S1E2,"Centrum",50.07725,14.44844,,,2,U209S1,2,,
U209S1E3,"TRAM Flora, Strašnice",50.07700,14.44883,,,2,U209S1,2,,
U209S1E4,"Vinohradská tř.",50.07708,14.44925,,,2,U209S1,2,,
U228S1E1,"Michelská ul., BUS",50.04186,14.46050,,,2,U228S1,2,,
U237S1E9,"Palackého nám., Zítkovy sady",50.07269,14.41514," "," ",2,U237S1,0,U237L0,
U237S1E8,"Palackého nám., TRAM Václavské nám.",50.07317,14.41456," "," ",2,U237S1,0,U237L0,
U237S1E6,"Palackého nám., Jiráskovo nám.",50.07375,14.41520," "," ",2,U237S1,0,U237L0,
U237S1E2,"Karlovo nám., TRAM I. P. Pavlova",50.07547,14.41921," "," ",2,U237S1,0,U237L0,
U237S1E1,"Karlovo nám., BUS Strahov",50.07525,14.41877," "," ",2,U237S1,0,U237L0,
U237S1E5,"Karlovo nám., ul. Resslova",50.07571,14.41841," "," ",2,U237S1,0,U237L0,
U237S1E7,"Palackého nám., TRAM Anděl",50.07333,14.41456," "," ",2,U237S1,0,U237L0,
U237S1E4,"Karlovo nám., ČVUT",50.07604,14.41895," "," ",2,U237S1,0,U237L0,
U237S1E3,"Karlovo nám., TRAM Národní divadlo",50.07603,14.41953," "," ",2,U237S1,0,U237L0,
U258S1E3,"Obchodní centrum, Archeologická ul.",50.04458,14.33161,,,2,U258S1,1,,
U258S1E1,"Obchodní centrum, Archeologická ul.",50.04453,14.33161,,,2,U258S1,2,,
U258S1E2,"Tržiště, Zázvorkova ul.",50.04469,14.33156,,,2,U258S1,2,,
U286S1E2,"BUS Chodov, Uhříněves",50.03039,14.52586,,,2,U286S1,2,,
U286S1E3,"BUS Spořilov, Opatov",50.03053,14.52672,,,2,U286S1,2,,
U286S1E1,"BUS Petrovice, Horní Měcholupy",50.03103,14.52869,,,2,U286S1,1,,
U286S1E5,"Multikino, Lékárna",50.03107,14.52858,,,2,U286S1,2,,
U306S1E6,"BUS Řepy, Zličín",50.07507,14.34086,," ",2,U306S1,1,U306L0,
U306S1E5,"Kukulova ul.",50.07497,14.34077,," ",2,U306S1,0,U306L0,
U306S1E4,"BUS Vypich, Břevnov",50.07483,14.34092,," ",2,U306S1,0,U306L0,
U306S1E2,"BUS Vypich, Nem. Na Homolce",50.07445,14.34017,," ",2,U306S1,1,U306L0,
U306S1E3,"FN Motol",50.07446,14.34080,," ",2,U306S1,1,U306L0,
U306S1E1,"BUS Řepy, Zličín",50.07465,14.33998,," ",2,U306S1,1,U306L0,
U321S1E5,"Evropská x Banskobystrická",50.10017,14.39200,,,2,U321S1,1,U321L0,
U321S1E4,"Evropská, hotel Diplomat",50.10021,14.39163,,,2,U321S1,0,U321L0,
U321S1E1,"Evropská x Šolínova",50.10070,14.39201,,,2,U321S1,0,U321L0,
U321S1E2,"Evropská, TRAM Divoká Šárka",50.10042,14.39153,,,2,U321S1,0,U321L0,
U321S1E3,"Evropská, TRAM centrum",50.10033,14.39153,,,2,U321S1,0,U321L0,
U321S1E8,"Evropská, BUS Roztoky",50.10069,14.39330,,,2,U321S1,1,U321L0,
U321S1E9,"Evropská, BUS Roztoky",50.10064,14.39280,,,2,U321S1,0,U321L0,
U321S1E7,"Vítězné náměstí, BUS Suchdol",50.10083,14.39419,,,2,U321S1,0,U321L0,
U321S1E6,"Vítězné náměstí, TRAM",50.10025,14.39475,,,2,U321S1,0,U321L0,
U332S1E1,"BUS Ďáblice, Kobylisy",50.12606,14.48939,,,2,U332S1,1,,
U332S1E3,"Park Přátelství, Jablonecká ul.",50.12625,14.48989,,,2,U332S1,1,,
U332S1E4,"Park Přátelství",50.12633,14.48983,,,2,U332S1,1,,
U332S1E6,"BUS Českolipská, Bulovka",50.12653,14.48953,,,2,U332S1,1,,
U332S1E7,"BUS Českolipská, Bulovka",50.12628,14.48978,,,2,U332S1,1,,
U332S1E10,"BUS Prosek, Žižkov",50.12606,14.48894,,,2,U332S1,1,,
U360S1E1,"Zahrada",50.09089,14.40928,,,2,U360S1,2,U360L0,
U360S1E2,"TRAM",50.09078,14.40936,,,2,U360S1,2,U360L0,
U385S1E1,"ul. Na Pankráci, BUS Zelený pruh",50.05100,14.43992,,,2,U385S1,2,,
U385S1E2,"ul. Hvězdova, BUS Krč",50.05136,14.43961,,,2,U385S1,2,,
U385S1E3,"ul. Na Strži, Hotel Panorama",50.05056,14.43994,,,2,U385S1,1,,
U385S1E4,"Arkády",50.05088,14.43928,,,2,U385S1,2,,
U400S1E5,"Mezibranská, Žitná ul.",50.07865,14.42996,,,2,U400S1,0,U400L0,
U400S1E4,"Václavské nám., Krakovská ul.",50.07952,14.42957,,,2,U400S1,0,U400L0,
U400S1E3,"Václavské nám., Krakovská ul.",50.07962,14.42978,,,2,U400S1,0,U400L0,
U400S1E2,"Václavské nám., Wilsonova ul.",50.07978,14.42990,,,2,U400S1,0,U400L0,
U400S1E1,"Václavské nám., Wilsonova ul.",50.07987,14.43001,,,2,U400S1,0,U400L0,
U400S1E6,"Vinohradská třída",50.07939,14.43135,,,2,U400S1,0,U400L0,
U400S1E7,"Národní muzeum",50.07978,14.43151,,,2,U400S1,0,U400L0,
U400S1E8,"Vinohradská ul., 'A'",50.07923,14.43202,,,2,U400S1,1,U400L0,
U400S1E9,"Wilsonova ul., 'C'",50.08064,14.43156,,,2,U400S1,1,U400L0,
U458S1E9,"BUS Radotín, Modřany, Krč",50.06025,14.40936,,,2,U458S1,2,,
U458S1E8,"Terminál BUS",50.06031,14.40889,,,2,U458S1,2,,
U458S1E7,"Příjezd vlaků",50.06047,14.40886,,,2,U458S1,2,,
U458S1E4,"Praha-Smíchov, odjezd",50.06119,14.40906,,,2,U458S1,2,,
U458S1E3,"Praha-Smíchov, odjezd, BUS PID",50.06148,14.40884,,,2,U458S1,2,,
U458S1E5,"TRAM",50.06136,14.40931,,,2,U458S1,2,,
U458S1E6,"BUS PID",50.06181,14.40950,,,2,U458S1,2,,
U458S1E2,"TRAM, Pošta",50.06181,14.40886,,,2,U458S1,1,,
U458S1E10,"TRAM centrum, Nádražní ul.",50.06092,14.40939,,,2,U458S1,2,,
U462S1E4,"TRAM Voz. Vokovice, Divoká Šárka",50.09585,14.34676,,,2,U462S1,2,U462L0,
U462S1E1,"TRAM Dejvická, centrum",50.09563,14.34767,,,2,U462S1,1,U462L0,
U462S1E3,"Evropská ul.",50.09598,14.34673,,,2,U462S1,2,U462L0,
U462S1E2,"Vokovická ul., BUS Nové Vokovice",50.09614,14.34693,,,2,U462S1,2,U462L0,
U462S1E6,"BUS letiště, Kladno",50.09536,14.34684,,,2,U462S1,2,U462L0,
U462S1E7,"TRAM Dejvická, centrum",50.09568,14.34750,,,2,U462S1,2,U462L0,
U462S1E5,"Ústřední knihovna UK",50.09563,14.34687,,,2,U462S1,2,U462L0,
U474S1E5,"TRAM Lehovec, centrum",50.11007,14.49896," "," ",2,U474S1,0,U474L0,
U474S1E6,"TRAM Lehovec, Staromlýnská ul.",50.10969,14.49917," "," ",2,U474S1,0,U474L0,
U474S1E2,"Náměstí OSN, BUS Letňany, Čakovice",50.11039,14.50240," "," ",2,U474S1,0,U474L0,
U474S1E4,"Náměstí OSN, BUS Žižkov, Malešice",50.11057,14.50195," "," ",2,U474S1,0,U474L0,
U474S1E7,"Náměstí OSN, Fénix",50.11051,14.50181," "," ",2,U474S1,0,U474L1,
U476S1E2,"E2 Náměstí Míru, TRAM I. P. Pavlova",50.07511,14.43736,,,2,U476S1,2,,
U476S1E3,"E3 ul. Francouzská, BUS Florenc",50.07497,14.43767,,,2,U476S1,2,,
U476S1E4,"E4 ul. Korunní",50.07519,14.43792,,,2,U476S1,2,,
U476S1E1,"E1 ul. Vinohradská, Slezská",50.07547,14.43789,,,2,U476S1,2,,
U480S1E6,"Nám. Republiky, Obecní dům",50.08811,14.42817," "," ",2,U480S1,0,U480L0,
U480S1E5,"Nám. Republiky, ul. Revoluční",50.08853,14.42881," "," ",2,U480S1,0,U480L0,
U480S1E4,"Masarykovo nádr., ul. Na Poříčí",50.08872,14.43233," "," ",2,U480S1,0,U480L0,
U480S1E3,"Masarykovo nádr, ul. Na Florenci",50.08867,14.43300," "," ",2,U480S1,0,U480L0,
U480S1E1,"Masarykovo nádr, TRAM Žižkov",50.08814,14.43236," "," ",2,U480S1,0,U480L0,
U480S1E2,"Masarykovo nádr., TRAM Holešovice",50.08828,14.43272," "," ",2,U480S1,0,U480L0,
U480S1E7,"Nám. Republiky, ul. Hybernská",50.08806,14.42881," "," ",2,U480S1,0,U480L0,
U480S1E8,"Palladium",50.08843,14.42897,,,2,U480S1,2,,
U480S1E9,"Palladium",50.08843,14.42860,,,2,U480S1,2,,
U507S1E2,"TRAM Sídl. Petřiny, Vojenská nemocnice",50.08787,14.34448,," ",2,U507S1,0,U507L0,
U507S1E3,"Brunclíkova ul., stadion Markéta",50.08638,14.34531,," ",2,U507S1,0,U507L0,
U510S1E2,"Finanční úřad, Pol. Vysočany",50.10661,14.49294,,,2,U510S1,2,,
U510S1E3,"TRAM, Sokolovská ul.",50.10661,14.49281,,,2,U510S1,2,,
U510S1E1,"O2 Arena, BUS Prosek",50.10636,14.49303,,,2,U510S1,2,,
U527S1E2,"Hotel Corinthia, Kongresová ul.",50.06303,14.43072,,,2,U527S1,1,,
U527S1E1,"Vyšehrad, Holiday Inn",50.06303,14.43033,,,2,U527S1,1,,
U529S1E5,"Zenklova ul., TRAM Kobylisy",50.10383,14.47344," "," ",2,U529S1,0,U529L0,
U529S1E6,"TRAM Holešovice, Letná",50.10358,14.47286," "," ",2,U529S1,0,U529L0,
U529S1E7,"TRAM Žižkov, Florenc",50.10311,14.47322," "," ",2,U529S1,0,U529L0,
U529S1E8,"TRAM Vysočany, Hloubětín",50.10344,14.47375," "," ",2,U529S1,0,U529L0,
U529S1E2,"BUS Prosek, Letňany",50.10481,14.47603," "," ",2,U529S1,0,U529L0,
U529S1E3,"BUS Prosek, ul. Na Hrázi",50.10519,14.47547," "," ",2,U529S1,0,U529L0,
U529S1E1,"BUS Prosek, ul. Na Žertvách",50.10442,14.47656," "," ",2,U529S1,0,U529L0,
U529S1E4,"BUS Dolní Počernice",50.10469,14.47558," "," ",2,U529S1,0,U529L0,
U529S1E9,"TRAM Žižkov, Florenc",50.10338,14.47315," "," ",2,U529S1,0,U529L0,
U539S1E2,"ul. Magdaleny Rettigové",50.07944,14.42018," "," ",2,U539S1,0,U539L0,
U539S1E1,"TRAM Národní divadlo, Spálená ul.",50.08121,14.41980," "," ",2,U539S1,0,U539L0,
U539S1E3,"TRAM Národní divadlo, Quadrio",50.08124,14.42000,,,2,U539S1,2,,
U597S1E3,"ul. Na Pankráci, Vrchní soud",50.05650,14.43425,,,2,U597S1,2,,
U597S1E1,"Kischova ul., Lomnického ul.",50.05644,14.43369,,,2,U597S1,2,,
U597S1E2,"BUS Kavčí Hory, Pankrác",50.05603,14.43422,,,2,U597S1,2,,
U601S1E2,"BUS Chodov, dálková doprava",50.03747,14.47789,,,2,U601S1,1,,
U601S1E1,"Ryšavého ul., Horní Roztyly",50.03719,14.47767,,,2,U601S1,1,,
U602S1E1,"BUS Anděl, Velká Ohrada",50.05081,14.35333,,,2,U602S1,2,,
U602S1E2,"BUS Vypich, Bavorská",50.05106,14.35328,,,2,U602S1,2,,
U602S1E10,"ul. Seydlerova, Parkoviště P+R",50.05064,14.35106,,,2,U602S1,1,,
U602S1E8,"Petržílkova ul., Bucharova ul.",50.05086,14.35100,,,2,U602S1,1,,
U602S1E6,"zájezdová doprava",50.05083,14.35133,,,2,U602S1,1,,
U603S1E9,"Vysočanská ul., obchodní centrum",50.11914,14.49896,,,2,U603S1,1,,
U603S1E2,"BUS Vysočanská, Hostivař",50.11896,14.49819,,,2,U603S1,1,,
U603S1E6,"BUS Letňany, Čakovice",50.11867,14.49975,,,2,U603S1,1,,
U603S1E8,"BUS Palmovka, Libeň",50.11886,14.49944,,,2,U603S1,1,,
U603S1E4,"Vysočanská ul., BUS Kobylisy, Bohnice",50.11900,14.49870,,,2,U603S1,1,,
U603S1E1,"BUS Kobylisy, Bohnice",50.11921,14.49847,,,2,U603S1,1,,
U603S1E10,"obchodní centrum, Jablonecká ul.",50.11934,14.49873,,,2,U603S1,1,,
U655S1E1,"Sídliště Invalidovna, Sokolovská ul., TRAM",50.09725,14.46458,,,2,U655S1,2,,
U675S1E8,"Katastrální úřad, BUS Bohnice",50.12497,14.45569,,,2,U675S1,2,,
U675S1E6,"Střelničná ul.",50.12514,14.45622,,,2,U675S1,2,,
U675S1E7,"Střelničná ul., Klapkova ul.",50.12464,14.45611,,,2,U675S1,2,,
U675S1E10,"BUS Prosek, Hostivař",50.12442,14.45511,,,2,U675S1,1,,
U675S1E1,"Kobyliské nám., příměstské linky",50.12411,14.45256,,,2,U675S1,2,,
U675S1E2,"Kobyliské nám., Čimická ul.",50.12411,14.45178,,,2,U675S1,2,,
U675S1E3,"Kobyliské nám., Salesiánské centrum",50.12328,14.45231,,,2,U675S1,2,,
U675S1E4,"Kobyliské nám., ul. Nad Šutkou",50.12344,14.45286,,,2,U675S1,2,,
U675S1E5,"Kobyliské nám., ul. Pod Sídlištěm",50.12369,14.45286,,,2,U675S1,2,,
U675S1E9,"BUS Prosek, Hostivař",50.12475,14.45586,,,2,U675S1,2,,
U685S1E2,"BUS Stará Stodůlecká, Malá Ohrada",50.05453,14.37117,,,2,U685S1,2,,
U685S1E1,"BUS Malvazinky, Smíchov",50.05442,14.37114,,,2,U685S1,2,,
U689S1E1,"Karlín, Sokolovská ul.",50.09119,14.43947,,,2,U689S1,0,U689L0,
U689S1E11,"ul. Na Florenci",50.09036,14.43739,,,2,U689S1,1,U689L0,
U689S1E4,"'C', BUS Terminal, pokladny / tickets",50.08959,14.43940,,,2,U689S1,0,U689L0,
U689S1E10,"Křižíkova ul., Masarykovo n.",50.08964,14.43850,,,2,U689S1,0,U689L0,
U689S1E6,"'C', Křižíkova ul., BUS Staroměstská",50.09010,14.43972,,,2,U689S1,0,U689L0,
U689S1E8,"'C', BUS Žižkov",50.09032,14.43892,,,2,U689S1,0,U689L0,
U689S1E3,"TRAM Sokolovská ul.",50.09108,14.43967,,,2,U689S1,0,U689L0,
U689S1E5,"'C', Křižíkova ul., Karlín",50.08987,14.43955,,,2,U689S1,0,U689L0,
U703S1E1,"Nám. J. Palacha",50.08861,14.41618,,,2,U703S1,2,U703L0,
U703S1E3,"Staroměstské nám.",50.08836,14.41674,,,2,U703S1,2,U703L0,
U703S1E2,"TRAM Holešovice, Braník",50.08851,14.41603,,,2,U703S1,2,U703L0,
U713S1E1,"ul. V Olšinách, Bečvářova",50.07264,14.49114,,,2,U713S1,1,,
U713S1E2,"TRAM Vršovice, Nusle",50.07272,14.49100,,,2,U713S1,1,,
U713S1E3,"Mrštíkova ul., Starostrašnická ul.",50.07297,14.49128,,,2,U713S1,2,,
U758S1E1,"Sokolovská ul., TRAM Palmovka",50.09358,14.45161,,,2,U758S1,2,,
U758S1E2,"Sokolovská ul., TRAM Florenc",50.09361,14.45178,,,2,U758S1,2,,
U818S1E1,"BUS Satalice, Kyje",50.10664,14.55989,,,2,U818S1,1,,
U818S1E2,"BUS Satalice, Kyje",50.10669,14.56014,,,2,U818S1,1,,
U818S1E3,"Parkoviště, Bouřilova ul.",50.10681,14.56094,,,2,U818S1,1,,
U818S1E5,"Chlumecká ul., tubus metra",50.10697,14.56122,,,2,U818S1,2,,
U818S1E6,"Chlumecká ul., Vodňanská ul.",50.10700,14.56089,,,2,U818S1,2,,
U818S1E7,"Chlumecká ul.",50.10689,14.56006,,,2,U818S1,2,,
U818S1E4,"Parkoviště, Bouřilova ul.",50.10686,14.56119,,,2,U818S1,1,,
U897S1E1,"linky PID",50.10874,14.57650,,,2,U897S1,0,U897L0,
U897S1E3,"linky PID",50.10899,14.57755,,,2,U897S1,0,U897L0,
U897S1E7,"linky PID příjezd",50.10908,14.57678,,,2,U897S1,0,U897L0,
U897S1E8,"linky PID příjezd",50.10901,14.57626,,,2,U897S1,0,U897L0,
U897S1E9,"linky PID příjezd",50.10915,14.57735,,,2,U897S1,0,U897L0,
U897S1E2,"linky PID",50.10886,14.57733,,,2,U897S1,0,U897L0,
U921S1E1,"Hotel Don Giovanni, Vinohradská ul.",50.07869,14.47450,,,2,U921S1,2,,
U921S1E4,"ul. Jana Želivského, Olšanské hřbitovy",50.07861,14.47367,,,2,U921S1,2,,
U921S1E7,"TRAM Žižkov, BUS Vršovice",50.07842,14.47422,,,2,U921S1,2,,
U921S1E6,"TRAM Strašnice, Vinice",50.07828,14.47417,,,2,U921S1,2,,
U921S1E5,"Vinohradská nem., Votická ul.",50.07825,14.47358,,,2,U921S1,2,,
U921S1E2,"BUS Malešice, Pankrác",50.07889,14.47433,,,2,U921S1,2,,
U921S1E3,"BUS výstup",50.07883,14.47394,,,2,U921S1,2,,
U953S1E1,"BUS Zahradní Město, Na Košíku",50.06819,14.50761,,,2,U953S1,2,,
U953S1E3,"BUS Zahradní Město, ul. Žernovská",50.06792,14.50739,,,2,U953S1,2,,
U953S1E4,"BUS Malešice, ul. Vyžlovská",50.06775,14.50792,,,2,U953S1,2,,
U953S1E5,"BUS Malešice, Žižkov",50.06806,14.50814,,,2,U953S1,2,,
U953S1E2,"BUS Zahradní Město, Na Košíku",50.06847,14.50717,,,2,U953S1,1,,
U953S1E6,"BUS Malešice, Sídliště Skalka",50.06802,14.50832,,,2,U953S1,2,,
U957S1E5,"TRAM Anděl, sportovní hala",50.05803,14.38886,,,2,U957S1,2,,
U1000S1E1,"BUS Kbely, Vinoř",50.12486,14.51636,,,2,U1000S1,2,,
U1000S1E3,"Listova ul.",50.12497,14.51587,,,2,U1000S1,1,,
U1000S1E4,"BUS Prosek, Palmovka",50.12528,14.51639,,,2,U1000S1,1,,
U1000S1E7,"Beladova ul.",50.12481,14.51678,,,2,U1000S1,2,,
U1000S1E8,"BUS Letňany, Čakovice",50.12528,14.51681,,,2,U1000S1,1,,
U1000S1E10,"Parkoviště P+R",50.12522,14.51564,,,2,U1000S1,1,,
U1000S1E12,"příměstské linky PID",50.12539,14.51575,,,2,U1000S1,2,,
U1000S1E13,"manipulační stání",50.12571,14.51571,,,2,U1000S1,2,,
U1007S1E2,"Parkoviště",50.04497,14.32281,,,2,U1007S1,1,,
U1007S1E1,"BUS Břevnov, Motol, Řepy",50.04517,14.32214,,,2,U1007S1,1,,
U1007S1E3,"Kettnerova ul., Obchodní centrum",50.04531,14.32231,,,2,U1007S1,1,,
U1040S1E1,"Na Knížecí, Stroupežnického ul.",50.06875,14.40336," "," ",2,U1040S1,0,U1040L0,
U1040S1E5,"Na Knížecí, BUS Motol",50.06867,14.40411," "," ",2,U1040S1,0,U1040L0,
U1040S1E4,"Na Knížecí, BUS Křížová",50.06853,14.40414," "," ",2,U1040S1,0,U1040L0,
U1040S1E3,"Na Knížecí, TRAM Laurová",50.06836,14.40419," "," ",2,U1040S1,0,U1040L0,
U1040S1E2,"Na Knížecí, Za Ženskými domovy",50.06822,14.40331," "," ",2,U1040S1,0,U1040L0,
U1040S1E6,"Anděl, TRAM Motol",50.07104,14.40418," "," ",2,U1040S1,0,U1040L0,
U1040S1E7,"ul. Nádražní, ul. Bozděchova",50.07049,14.40466," "," ",2,U1040S1,0,U1040L0,
U1071S1E1,"Černokostelecká ul., TRAM, BUS",50.07572,14.51544,,,2,U1071S1,1,,
U1072S1E4,"Václavské nám., Krakovská",50.08194,14.42625,,,2,U1072S1,2,U1072L0,0
U1072S1E2,"Vodičkova ul., TRAM",50.08198,14.42558,,,2,U1072S1,2,U1072L0,0
U1072S1E1,"Vodičkova ul., 28. října",50.08247,14.42561,,,2,U1072S1,2,U1072L0,0
U1072S1E19,"Jungmannovo nám.",50.08305,14.42247,,,2,U1072S1,2,U1072L0,0
U1072S1E17,"ul. Národní, Uhelný trh",50.08300,14.42145,,,2,U1072S1,2,U1072L0,0
U1072S1E18,"Jungmannovo nám., Národní třída",50.08283,14.42172,,,2,U1072S1,2,U1072L0,0
U1072S1E3,"Vodičkova ul., Divadlo ABC",50.08189,14.42577,,,2,U1072S1,2,U1072L0,0
U1072S1E14,"Můstek 'A', Václavské nám.",50.08406,14.42416,,,2,U1072S1,2,U1072L0,0
U1072S1E15,"Můstek 'A', ul. Na Příkopě",50.08443,14.42410,,,2,U1072S1,2,U1072L0,0
U1072S1E16,"Můstek 'A', ul. Na Příkopě",50.08460,14.42389,,,2,U1072S1,2,U1072L0,0
U1072S1E10,"Můstek 'A', ul. Provaznická",50.08457,14.42317,,,2,U1072S1,2,U1072L0,0
U1072S1E12,"Můstek 'A', Info, Jungmannovo nám.",50.08382,14.42301,,,2,U1072S1,2,U1072L0,0
U1072S1E9,"Václavské nám., Jindřišská ul.",50.08287,14.42655,,,2,U1072S1,2,U1072L0,0
U1072S1E8,"Václavské nám., Jindřišská, Pošta",50.08267,14.42661,,,2,U1072S1,2,U1072L0,0
U1072S1E7,"Václavské nám., Opletalova",50.08232,14.42660,,,2,U1072S1,2,U1072L0,0
U1072S1E6,"Václavské nám.",50.08214,14.42650,,,2,U1072S1,2,U1072L0,0
U1072S1E5,"Václavské nám.",50.08208,14.42642,,,2,U1072S1,2,U1072L0,0
U1072S1E13,"Můstek 'A', Info, Václavské nám.",50.08383,14.42367,,,2,U1072S1,2,U1072L0,0
U1072S1E11,"Můstek 'A', Informace, 28. října",50.08388,14.42285,,,2,U1072S1,2,U1072L0,0
U1072S1E21,"Můstek, ulice 28. října",50.08359,14.42410,,,2,U1072S1,1,U1072L0,0
U1140S1E4,"BUS, Sídliště Stodůlky",50.04681,14.30808,,,2,U1140S1,2,,
U1140S1E1,"BUS, Západní město",50.04667,14.30747,,,2,U1140S1,2,,
U1140S1E3,"BUS Řepy, Nádraží Veleslavín",50.04656,14.30806,,,2,U1140S1,2,,
U1140S1E2,"BUS Velká Ohrada, Luka",50.04653,14.30756,,,2,U1140S1,2,,
U1140S1E5,"BUS, Západní město",50.04668,14.30645,,,2,U1140S1,1,,
U1140S1E6,"Západní město, Britská čtvrť",50.04658,14.30507,,,2,U1140S1,2,,
U1141S1E1,"BUS terminál",50.05381,14.29064,,,2,U1141S1,1,,
U1154S1E2,"Sluneční nám., Petržílkova ul.",50.04992,14.34150,,,2,U1154S1,1,,
U1154S1E4,"Sluneční nám.",50.04986,14.34192,,,2,U1154S1,1,,
U1154S1E1,"Poliklinika Lípa, BUS",50.05000,14.34181,,,2,U1154S1,1,,
U1Z1P,"Boletická",50.13273,14.51370,"P",,0,,0,,A
U1Z1,"Boletická",50.13273,14.51370,"0",,0,,0,,A
U1Z2P,"Boletická",50.13301,14.51358,"P",,0,,0,,B
U1Z2,"Boletická",50.13301,14.51358,"0",,0,,0,,B
U3Z1P,"Břetislavka",50.12325,14.38953,"P",,0,,0,,A
U3Z1,"Břetislavka",50.12325,14.38953,"B",,0,,0,,A
U3Z2P,"Břetislavka",50.12301,14.38988,"P",,0,,0,,B
U3Z2,"Břetislavka",50.12301,14.38988,"B",,0,,0,,B
U4Z1P,"Arbesovo náměstí",50.07625,14.40420,"P",,0,,1,,A
U4Z2P,"Arbesovo náměstí",50.07589,14.40398,"P",,0,,1,,B
U4Z3P,"Arbesovo náměstí",50.07640,14.40570,"P",,0,,0,,C
U4Z4P,"Arbesovo náměstí",50.07656,14.40545,"P",,0,,0,,D
U5Z1P,"Nové Vokovice",50.10066,14.34071,"P",,0,,0,,A
U5Z2P,"Nové Vokovice",50.10055,14.34083,"P",,0,,0,,B
U6Z1P,"Dolnokřeslická",50.02428,14.56053,"P",,0,,0,,A
U6Z2P,"Dolnokřeslická",50.02421,14.56083,"P",,0,,0,,B
U9Z1,"Baba I",49.99793,14.41508,"0",,0,,0,,A
U9Z2,"Baba I",49.99857,14.41511,"0",,0,,0,,B
U10Z1,"Baba II",49.99959,14.41526,"0",,0,,0,,A
U10Z2,"Baba II",49.99957,14.41488,"0",,0,,0,,B
U11Z1P,"Násirovo náměstí",50.00151,14.42158,"P",,0,,0,,A
U11Z2P,"Násirovo náměstí",50.00125,14.42165,"P",,0,,0,,B
U12Z1P,"Balabenka",50.10476,14.48280,"P",,0,,1,,A
U12Z2P,"Balabenka",50.10434,14.48188,"P",,0,,1,,B
U12Z3P,"Balabenka",50.10423,14.48292,"P",,0,,1,,C
U12Z6P,"Balabenka",50.10346,14.48279,"P",,0,,0,,F
U12Z7P,"Balabenka",50.10332,14.48255,"P",,0,,0,,G
U13Z1P,"Balkán",50.09540,14.49626,"P",,0,,0,,A
U13Z2P,"Balkán",50.09420,14.49623,"P",,0,,0,,B
U14Z1P,"Baně",49.95258,14.37909,"P",,0,,0,,A
U14Z2P,"Baně",49.95278,14.37920,"P",,0,,0,,B
U14Z2,"Baně",49.95278,14.37920,"B",,0,,0,,B
U15Z1P,"Baterie",50.09239,14.36983,"P",,0,,1,,A
U15Z2P,"Baterie",50.09240,14.36941,"P",,0,,1,,B
U16Z1P,"Basilejské náměstí",50.08725,14.47157,"P",,0,,0,,A
U16Z2P,"Basilejské náměstí",50.08721,14.47053,"P",,0,,0,,B
U17Z1P,"Lehárova",50.00874,14.40629,"P",,0,,0,,A
U17Z2P,"Lehárova",50.00903,14.40521,"P",,0,,0,,B
U18Z1P,"Bazar",50.09879,14.67163,"P",,0,,0,,A
U18Z1,"Bazar",50.09879,14.67163,"B",,0,,0,,A
U18Z2P,"Bazar",50.09871,14.67130,"P",,0,,0,,B
U18Z2,"Bazar",50.09871,14.67130,"B",,0,,0,,B
U19Z1P,"Belárie",50.01361,14.40188,"P",,0,,1,,A
U19Z2P,"Belárie",50.01296,14.40180,"P",,0,,1,,B
U20Z1P,"Královský letohrádek",50.09423,14.40500,"P",,0,,1,,A
U20Z2P,"Královský letohrádek",50.09426,14.40453,"P",,0,,1,,B
U21Z1P,"Sídliště Letňany",50.14287,14.50652,"P",,0,,0,,A
U21Z2P,"Sídliště Letňany",50.14257,14.50659,"P",,0,,0,,B
U22Z1P,"K Lipanům",50.01575,14.60643,"P",,0,,0,,A
U22Z1,"K Lipanům",50.01575,14.60643,"B",,0,,0,,A
U22Z2P,"K Lipanům",50.01608,14.60652,"P",,0,,0,,B
U22Z2,"K Lipanům",50.01608,14.60652,"B",,0,,0,,B
U23Z1P,"Benkova",50.03793,14.49910,"P",,0,,0,,A
U23Z2P,"Benkova",50.03783,14.49976,"P",,0,,0,,B
U24Z1P,"Na Beránku",49.99759,14.42867,"P",,0,,0,,A
U24Z1,"Na Beránku",49.99759,14.42867,"B",,0,,0,,A
U24Z2P,"Na Beránku",49.99783,14.42951,"P",,0,,0,,B
U24Z2,"Na Beránku",49.99783,14.42951,"B",,0,,0,,B
U25Z1P,"Bertramka",50.07223,14.39329,"P",,0,,1,,A
U25Z2P,"Bertramka",50.07224,14.39243,"P",,0,,1,,B
U26Z1P,"Betonárka",50.03671,14.57479,"P",,0,,0,,A
U26Z1,"Betonárka",50.03671,14.57479,"B",,0,,0,,A
U26Z2P,"Betonárka",50.03677,14.57477,"P",,0,,0,,B
U26Z2,"Betonárka",50.03677,14.57477,"B",,0,,0,,B
U27Z1P,"Sídliště Jinonice",50.05101,14.36517,"P",,0,,0,,A
U27Z2P,"Sídliště Jinonice",50.05111,14.36611,"P",,0,,0,,B
U28Z1P,"Běchovice",50.08086,14.61760,"P",,0,,0,,A
U28Z2P,"Běchovice",50.08104,14.61726,"P",,0,,0,,B
U28Z3P,"Běchovice",50.08163,14.61651,"P",,0,,0,,C
U28Z4P,"Běchovice",50.08131,14.61630,"P",,0,,0,,D
U29Z1P,"Bělocerkevská",50.07261,14.47030,"P",,0,,0,,A
U29Z2P,"Bělocerkevská",50.07118,14.47062,"P",,0,,0,,B
U29Z3P,"Bělocerkevská",50.07190,14.47008,"P",,0,,0,,C
U30Z1P,"Ratibořická",50.11099,14.61376,"P",,0,,0,,A
U30Z2P,"Ratibořická",50.11160,14.61456,"P",,0,,0,,B
U31Z1P,"Bílá Hora",50.07555,14.32279,"P",,0,,2,,A
U31Z2P,"Bílá Hora",50.07586,14.32339,"P",,0,,2,,B
U31Z3P,"Bílá Hora",50.07557,14.32286,"P",,0,,2,,C
U31Z4P,"Bílá Hora",50.07580,14.32338,"P",,0,,2,,D
U31Z5P,"Bílá Hora",50.07597,14.32362,"P",,0,,0,,E
U31Z6P,"Bílá Hora",50.07573,14.32383,"P",,0,,0,,F
U31Z7P,"Bílá Hora",50.07556,14.32408,"P",,0,,0,,G
U31Z7,"Bílá Hora",50.07556,14.32408,"B",,0,,0,,G
U31Z8P,"Bílá Hora",50.07540,14.32150,"P",,0,,0,,H
U31Z8,"Bílá Hora",50.07540,14.32150,"B",,0,,0,,H
U32Z1P,"Bílá labuť",50.09017,14.43547,"P",,0,,1,,A
U32Z2P,"Bílá labuť",50.09035,14.43626,"P",,0,,1,,B
U33Z1P,"Bílý Beránek",50.06112,14.31027,"P",,0,,0,,A
U33Z2P,"Bílý Beránek",50.06104,14.30997,"P",,0,,0,,B
U33Z3,"Bílý Beránek",50.06176,14.30883,"0",,0,,0,,C
U33Z4,"Bílý Beránek",50.06161,14.30900,"0",,0,,0,,D
U34Z1P,"Biskupcova",50.08854,14.46879,"P",,0,,1,,A
U34Z2P,"Biskupcova",50.08910,14.46863,"P",,0,,1,,B
U34Z51P,"Biskupcova",50.08798,14.46901,"P",,0,,0,,H7
U34Z52P,"Biskupcova",50.08909,14.46882,"P",,0,,0,,H8
U35Z1P,"Blatnická",50.06430,14.27050,"P",,0,,0,,A
U35Z1,"Blatnická",50.06430,14.27050,"B",,0,,0,,A
U35Z2P,"Blatnická",50.06395,14.27052,"P",,0,,0,,B
U35Z2,"Blatnická",50.06395,14.27052,"B",,0,,0,,B
U36Z1P,"Blatov",50.07860,14.64636,"P",,0,,0,,A
U36Z2P,"Blatov",50.07891,14.64480,"P",,0,,0,,B
U37Z1P,"Bohdalec",50.06055,14.46950,"P",,0,,0,,A
U37Z2P,"Bohdalec",50.06005,14.47010,"P",,0,,0,,B
U38Z1P,"Staré Bohnice",50.13367,14.41573,"P",,0,,0,,A
U38Z2P,"Staré Bohnice",50.13331,14.41580,"P",,0,,0,,B
U38Z3P,"Staré Bohnice",50.13384,14.41588,"P",,0,,0,,C
U39Z1P,"Bojasova",50.13259,14.46246,"P",,0,,0,,A
U39Z2P,"Bojasova",50.13248,14.46276,"P",,0,,0,,B
U40Z1P,"Na Pískách",50.09896,14.36969,"P",,0,,1,,A
U40Z2P,"Na Pískách",50.09909,14.37034,"P",,0,,1,,B
U42Z1P,"Botanická zahrada",50.07050,14.41961,"P",,0,,1,,A
U42Z2P,"Botanická zahrada",50.07105,14.41892,"P",,0,,1,,B
U43Z1P,"Brechtova",50.03553,14.51725,"P",,0,,0,,A
U43Z2P,"Brechtova",50.03519,14.51626,"P",,0,,0,,B
U44Z1P,"Břevnovská",50.08566,14.36504,"P",,0,,0,,A
U44Z2P,"Břevnovská",50.08536,14.36477,"P",,0,,0,,B
U45Z1P,"Bruselská",50.07313,14.43330,"P",,0,,1,,A
U45Z2P,"Bruselská",50.07288,14.43322,"P",,0,,1,,B
U46Z1P,"Brusnice",50.09298,14.39173,"P",,0,,1,,A
U46Z2P,"Brusnice",50.09300,14.39126,"P",,0,,2,,B
U46Z3P,"Brusnice",50.09314,14.39317,"P",,0,,1,,C
U46Z4P,"Brusnice",50.09317,14.39270,"P",,0,,1,,D
U47Z1P,"Blatiny",50.06570,14.30362,"P",,0,,1,,A
U47Z2P,"Blatiny",50.06580,14.30210,"P",,0,,1,,B
U47Z3P,"Blatiny",50.06582,14.30235,"P",,0,,0,,C
U47Z4P,"Blatiny",50.06565,14.30253,"P",,0,,0,,D
U48Z1P,"Argentinská",50.10368,14.44343,"P",,0,,0,,A
U48Z2P,"Argentinská",50.10243,14.44308,"P",,0,,0,,B
U48Z3P,"Argentinská",50.10303,14.44367,"P",,0,,0,,C
U49Z1P,"Geologická",50.03650,14.38700,"P",,0,,0,,A
U49Z2P,"Geologická",50.03633,14.38716,"P",,0,,0,,B
U49Z3P,"Geologická",50.03586,14.38755,"P",,0,,0,,C
U50Z2P,"Budějovická",50.04484,14.44789,"P",,0,,0,,B
U50Z3P,"Budějovická",50.04444,14.44783,"P",,0,,0,,C
U50Z4,"Budějovická",50.04473,14.44833,"0",,0,,1,,D
U50Z5P,"Poliklinika Budějovická",50.04323,14.45003,"P",,0,,0,,E
U50Z6P,"Poliklinika Budějovická",50.04328,14.44980,"P",,0,,0,,F
U50Z7P,"Budějovická",50.04593,14.44940,"P",,0,,0,,G
U50Z8P,"Budějovická",50.04623,14.44740,"P",,0,,0,,H
U50Z9,"Budějovická",50.04460,14.44810,"0",,0,,0,,I
U50Z11P,"Budějovická",50.04557,14.44786,"P",,0,,0,,K
U50Z13P,"Poliklinika Budějovická",50.04359,14.45029,"P",,0,,0,,M
U50Z14P,"Poliklinika Budějovická",50.04332,14.45020,"P",,0,,0,,N
U50Z15P,"Budějovická",50.04478,14.44923,"P",,0,,0,,O
U50Z81,"Budějovická",50.04476,14.44759,"0",,0,,2,,A
U50Z84,"Budějovická",50.04476,14.44759,"0",,0,,2,,A
U50Z87,"Budějovická",50.04593,14.44940,"0",,0,,0,,G
U50Z101P,"Budějovická",50.04477,14.44829,"P",,0,U50S1,1,,1
U50Z102P,"Budějovická",50.04405,14.44928,"P",,0,U50S1,1,,2
U51Z1P,"Sportareál Satalice",50.12360,14.56698,"P",,0,,0,,A
U51Z2P,"Sportareál Satalice",50.12503,14.56766,"P",,0,,0,,B
U51Z2,"Sportareál Satalice",50.12503,14.56766,"B",,0,,0,,B
U52Z1P,"Chodov",50.03065,14.49190,"P",,0,,0,,A
U52Z2P,"Chodov",50.03077,14.49146,"P",,0,,0,,B
U52Z4P,"Chodov",50.03088,14.49175,"P",,0,,0,,D
U52Z5P,"Chodov",50.03109,14.49152,"P",,0,,0,,E
U52Z101P,"Chodov",50.03191,14.49035,"P",,0,U52S1,1,,1
U52Z102P,"Chodov",50.03144,14.49157,"P",,0,U52S1,1,,2
U53Z1P,"Budovec",50.13385,14.38387,"P",,0,,0,,A
U53Z2P,"Budovec",50.13470,14.38343,"P",,0,,0,,B
U54Z1P,"Bulovka",50.11606,14.46815,"P",,0,,1,,A
U54Z2P,"Bulovka",50.11655,14.46776,"P",,0,,1,,B
U54Z3P,"Bulovka",50.11663,14.46717,"P",,0,,0,,C
U54Z4P,"Bulovka",50.11760,14.46893,"P",,0,,0,,D
U54Z6P,"Bulovka",50.11560,14.46852,"P",,0,,0,,F
U54Z6,"Bulovka",50.11560,14.46852,"0",,0,,0,,F
U54Z76,"Bulovka",50.11560,14.46852,"0",,0,,0,,F
U55Z1P,"Šimůnkova",50.13265,14.47013,"P",,0,,0,,A
U55Z2P,"Šimůnkova",50.13262,14.47063,"P",,0,,0,,B
U55Z3P,"Šimůnkova",50.13353,14.47065,"P",,0,,0,,C
U56Z1P,"Kuliška",50.10775,14.36448,"P",,0,,0,,A
U56Z2P,"Kuliška",50.10764,14.36436,"P",,0,,0,,B
U57Z1P,"Cementárna Radotín",49.99382,14.34262,"P",,0,,0,,A
U57Z1,"Cementárna Radotín",49.99382,14.34262,"0",,0,,0,,A
U57Z2P,"Cementárna Radotín",49.99437,14.34250,"P",,0,,0,,B
U57Z2,"Cementárna Radotín",49.99437,14.34250,"0",,0,,0,,B
U58Z1P,"Cibulka",50.06558,14.36300,"P",,0,,0,,A
U58Z2P,"Cibulka",50.06548,14.36374,"P",,0,,0,,B
U59Z1P,"Cikánka",49.99748,14.32258,"P",,0,,0,,A
U59Z2P,"Cikánka",49.99742,14.32267,"P",,0,,0,,B
U60Z1P,"Cílkova",50.01645,14.44347,"P",,0,,0,,A
U60Z2P,"Cílkova",50.01655,14.44315,"P",,0,,0,,B
U61Z1P,"Ciolkovského",50.08812,14.30708,"P",,0,,0,,A
U61Z2P,"Ciolkovského",50.08797,14.30665,"P",,0,,0,,B
U61Z3P,"Ciolkovského",50.08811,14.30744,"P",,0,,0,,C
U62Z1P,"Cukrovar Modřany",49.99933,14.40635,"P",,0,,0,,A
U62Z1,"Cukrovar Modřany",49.99933,14.40635,"0",,0,,0,,A
U62Z2P,"Cukrovar Modřany",49.99962,14.40637,"P",,0,,0,,B
U62Z2,"Cukrovar Modřany",49.99962,14.40637,"0",,0,,0,,B
U63Z1P,"Cukrovar Čakovice",50.15155,14.51917,"P",,0,,0,,A
U63Z2P,"Cukrovar Čakovice",50.15167,14.51883,"P",,0,,0,,B
U64Z1P,"Čakovice",50.15181,14.52882,"P",,0,,0,,A
U64Z1,"Čakovice",50.15181,14.52882,"B",,0,,0,,A
U64Z2P,"Čakovice",50.15149,14.53098,"P",,0,,0,,B
U64Z3P,"Čakovice",50.15128,14.53108,"P",,0,,0,,C
U64Z3,"Čakovice",50.15128,14.53108,"B",,0,,0,,C
U64Z6P,"Čakovice",50.15118,14.53066,"P",,0,,0,,F
U65Z1P,"Čakovická",50.11902,14.51895,"P",,0,,0,,A
U65Z2P,"Čakovická",50.11913,14.51850,"P",,0,,0,,B
U66Z1P,"Čechova škola",50.11738,14.42430,"P",,0,,0,,A
U66Z2P,"Čechova škola",50.11699,14.42255,"P",,0,,0,,B
U67Z2P,"Čechovo náměstí",50.06807,14.45947,"P",,0,,1,,B
U67Z4P,"Čechovo náměstí",50.06786,14.45824,"P",,0,,1,,D
U67Z7P,"Čechovo náměstí",50.06817,14.45904,"P",,0,,1,,G
U68Z1P,"Čechův most",50.09405,14.41689,"P",,0,,2,,A
U68Z2P,"Čechův most",50.09409,14.41773,"P",,0,,2,,B
U69Z1P,"Černínova",50.08897,14.46229,"P",,0,,0,,A
U69Z2P,"Černínova",50.08895,14.46112,"P",,0,,0,,B
U70Z1P,"Černokostelecká",50.07788,14.51065,"P",,0,,1,,A
U70Z2P,"Černokostelecká",50.07782,14.51135,"P",,0,,1,,B
U70Z3P,"Černokostelecká",50.07806,14.50938,"P",,0,,1,,C
U70Z4P,"Černokostelecká",50.07815,14.50996,"P",,0,,1,,D
U70Z6P,"Černokostelecká",50.07787,14.50881,"P",,0,,0,,F
U70Z7P,"Černokostelecká",50.07774,14.51099,"P",,0,,0,,G
U71Z1P,"Černý kůň",50.02308,14.40373,"P",,0,,1,,A
U71Z2P,"Černý kůň",50.02252,14.40353,"P",,0,,1,,B
U71Z3P,"Černý kůň",50.02235,14.40373,"P",,0,,0,,C
U71Z4P,"Černý kůň",50.02244,14.40409,"P",,0,,0,,D
U71Z5P,"Černý kůň",50.02260,14.40514,"P",,0,,0,,E
U71Z6P,"Černý kůň",50.02271,14.40497,"P",,0,,0,,F
U72Z1P,"Lehovec",50.10688,14.54722,"P",,0,,1,,A
U72Z2P,"Lehovec",50.10682,14.54798,"P",,0,,1,,B
U72Z3P,"Lehovec",50.10686,14.54738,"P",,0,,1,,C
U72Z4P,"Lehovec",50.10696,14.54728,"P",,0,,0,,D
U72Z5P,"Lehovec",50.10730,14.54797,"P",,0,,0,,E
U72Z8P,"Lehovec",50.10663,14.54720,"P",,0,,0,,H
U72Z53P,"Lehovec",50.10731,14.54700,"P",,0,,0,,H9
U73Z1P,"Červený Vrch",50.09684,14.35297,"P",,0,,1,,A
U73Z2P,"Červený Vrch",50.09682,14.35231,"P",,0,,1,,B
U74Z1P,"Čimice",50.14072,14.43083,"P",,0,,0,,A
U74Z2P,"Čimice",50.14090,14.43048,"P",,0,,0,,B
U75Z1P,"Kolbenova",50.11062,14.51585,"P",,0,,1,,A
U75Z2P,"Kolbenova",50.11055,14.51617,"P",,0,,1,,B
U75Z101P,"Kolbenova",50.11043,14.51640,"P"," ",0,U75S1,0,U75L1,1
U75Z102P,"Kolbenova",50.11035,14.51639,"P"," ",0,U75S1,0,U75L1,2
U76Z1P,"Modřanská škola",50.00922,14.40305,"P",,0,,1,,A
U76Z2P,"Modřanská škola",50.00843,14.40311,"P",,0,,1,,B
U76Z3P,"Modřanská škola",50.00980,14.40295,"P",,0,,0,,C
U76Z4P,"Modřanská škola",50.00882,14.40347,"P",,0,,0,,D
U78Z1P,"Ládví",50.12648,14.47014,"P",,0,,1,,A
U78Z2P,"Ládví",50.12650,14.47099,"P",,0,,1,,B
U78Z3P,"Ládví",50.12663,14.47023,"P",,0,,0,,C
U78Z3,"Ládví",50.12663,14.47023,"0",,0,,0,,C
U78Z4P,"Ládví",50.12626,14.46977,"P",,0,,0,,D
U78Z5,"Ládví",50.12622,14.46929,"0",,0,,0,,E
U78Z6,"Ládví",50.12619,14.46881,"0",,0,,0,,F
U78Z73,"Ládví",50.12663,14.47023,"0",,0,,2,,C
U78Z101P,"Ládví",50.12658,14.47016,"P",,0,U78S1,1,,1
U78Z102P,"Ládví",50.12661,14.46874,"P",,0,U78S1,1,,2
U79Z1P,"Depo Kačerov",50.04568,14.47035,"P",,0,,0,,A
U79Z2P,"Depo Kačerov",50.04564,14.47068,"P",,0,,0,,B
U80Z1P,"Dědina",50.09349,14.30474,"P",,0,,0,,A
U80Z2P,"Dědina",50.09333,14.30416,"P",,0,,0,,B
U80Z2,"Dědina",50.09333,14.30416,"B",,0,,0,,B
U80Z3,"Dědina",50.09363,14.30294,"B",,0,,0,,C
U80Z4,"Dědina",50.09333,14.30359,"B",,0,,2,,D
U81Z1P,"Dělnická",50.10366,14.44982,"P",,0,,1,,A
U81Z2P,"Dělnická",50.10263,14.45004,"P",,0,,1,,B
U81Z3P,"Tusarova",50.10078,14.45002,"P",,0,,1,,C
U82Z1P,"Bílenecké náměstí",50.14964,14.44248,"P",,0,,0,,A
U82Z2P,"Bílenecké náměstí",50.14949,14.44270,"P",,0,,0,,B
U83Z1P,"Divadlo Na Fidlovačce",50.06483,14.43628,"P",,0,,2,,A
U83Z2P,"Divadlo Na Fidlovačce",50.06465,14.43713,"P",,0,,1,,B
U84Z1P,"Dívčí hrady",50.05585,14.39915,"P",,0,,0,,A
U84Z2P,"Dívčí hrady",50.05566,14.39863,"P",,0,,0,,B
U84Z3P,"Dívčí hrady",50.05611,14.39774,"P",,0,,0,,C
U85Z1P,"Divoká Šárka",50.09279,14.32468,"P",,0,,2,,A
U85Z2P,"Divoká Šárka",50.09308,14.32502,"P",,0,,2,,B
U85Z3P,"Divoká Šárka",50.09273,14.32568,"P",,0,,1,,C
U85Z4P,"Divoká Šárka",50.09291,14.32533,"P",,0,,1,,D
U85Z6P,"Divoká Šárka",50.09160,14.32448,"P",,0,,0,,F
U85Z7P,"Divoká Šárka",50.09276,14.32286,"P",,0,,0,,G
U85Z8P,"Divoká Šárka",50.09256,14.32208,"P",,0,,0,,H
U85Z8,"Divoká Šárka",50.09256,14.32208,"B",,0,,0,,H
U85Z9,"Divoká Šárka",50.09276,14.32348,"B",,0,,0,,I
U87Z1P,"Dlouhá třída",50.09167,14.42754,"P",,0,,1,,A
U87Z2P,"Dlouhá třída",50.09054,14.42790,"P",,0,,2,,B
U88Z1P,"Dobeška",50.04215,14.41632,"P",,0,,0,,A
U88Z2P,"Dobeška",50.04151,14.41568,"P",,0,,0,,B
U89Z1P,"Dobratická",50.13032,14.50865,"P",,0,,0,,A
U89Z1,"Dobratická",50.13032,14.50865,"0",,0,,0,,A
U89Z2P,"Dobratická",50.13037,14.50838,"P",,0,,0,,B
U89Z2,"Dobratická",50.13037,14.50838,"0",,0,,0,,B
U90Z1P,"Dobročovická",50.07341,14.50511,"P",,0,,0,,A
U90Z2P,"Dobročovická",50.07326,14.50473,"P",,0,,0,,B
U91Z1P,"Dobronická",50.01098,14.47147,"P",,0,,0,,A
U91Z2P,"Dobronická",50.01105,14.47245,"P",,0,,0,,B
U92Z1P,"Prunéřovská",50.14394,14.45098,"P",,0,,0,,A
U92Z1,"Prunéřovská",50.14394,14.45098,"B",,0,,0,,A
U92Z2P,"Prunéřovská",50.14380,14.45075,"P",,0,,0,,B
U92Z2,"Prunéřovská",50.14380,14.45075,"B",,0,,0,,B
U93Z1P,"Dolní Chabry",50.15104,14.43757,"P",,0,,0,,A
U93Z2P,"Dolní Chabry",50.15102,14.43782,"P",,0,,0,,B
U94Z1P,"Osecká",50.14648,14.44902,"P",,0,,0,,A
U94Z3P,"Osecká",50.14618,14.44807,"P",,0,,0,,C
U96Z1P,"Dolnoměcholupská",50.06060,14.55672,"P",,0,,0,,A
U96Z1,"Dolnoměcholupská",50.06060,14.55672,"0",,0,,0,,A
U96Z2P,"Dolnoměcholupská",50.05952,14.55877,"P",,0,,0,,B
U96Z2,"Dolnoměcholupská",50.05952,14.55877,"0",,0,,0,,B
U96Z3P,"U Střediska",50.05875,14.55823,"P",,0,,0,,C
U96Z3,"U Střediska",50.05875,14.55823,"0",,0,,0,,C
U96Z4P,"U Střediska",50.05857,14.55726,"P",,0,,0,,D
U96Z4,"U Střediska",50.05857,14.55726,"0",,0,,0,,D
U97Z1P,"Dolní Počernice",50.08498,14.57720,"P",,0,,0,,A
U97Z2P,"Dolní Počernice",50.08508,14.57740,"P",,0,,0,,B
U97Z3P,"Dolní Počernice",50.08565,14.57626,"P",,0,,0,,C
U98Z1P,"Doliny",50.05742,14.42544,"P",,0,,0,,A
U98Z2P,"Doliny",50.05750,14.42345,"P",,0,,0,,B
U99Z1P,"Donovalská",50.03740,14.50888,"P",,0,,0,,A
U99Z2P,"Donovalská",50.03648,14.50855,"P",,0,,0,,B
U100Z1P,"Vltavská",50.09923,14.43812,"P",,0,,1,,A
U100Z2P,"Vltavská",50.09881,14.43876,"P",,0,,1,,B
U100Z5P,"Vltavská",50.09811,14.43881,"P",,0,,0,,E
U100Z6P,"Vltavská",50.09834,14.43875,"P",,0,,0,,F
U100Z11P,"Bubenská",50.09810,14.43659,"P",,0,,0,,K
U100Z101P,"Vltavská",50.10075,14.43856,"P",,0,U100S1,1,,1
U100Z102P,"Vltavská",50.09985,14.43843,"P",,0,U100S1,1,,2
U102Z1P,"Dostihová",50.01253,14.39391,"P",,0,,0,,A
U102Z1,"Dostihová",50.01253,14.39391,"0",,0,,0,,A
U102Z2P,"Dostihová",50.01295,14.39433,"P",,0,,0,,B
U102Z2,"Dostihová",50.01295,14.39433,"0",,0,,0,,B
U103Z1P,"Drinopol",50.08391,14.37067,"P",,0,,1,,A
U103Z2P,"Drinopol",50.08397,14.37160,"P",,0,,1,,B
U104Z1P,"Jiviny",50.07778,14.30497,"P",,0,,0,,A
U104Z2P,"Jiviny",50.07744,14.30403,"P",,0,,0,,B
U104Z4,"Jiviny",50.07698,14.30242,"B",,0,,0,,D
U105Z1P,"Druhanická",50.07228,14.65283,"P",,0,,0,,A
U105Z1,"Druhanická",50.07228,14.65283,"B",,0,,0,,A
U106Z1P,"Opatov",50.02740,14.50777,"P",,0,,0,,A
U106Z1,"Opatov",50.02740,14.50777,"B",,0,,0,,A
U106Z2P,"Opatov",50.02766,14.50767,"P",,0,,0,,B
U106Z4P,"Opatov",50.02761,14.50828,"P",,0,,0,,D
U106Z4,"Opatov",50.02761,14.50828,"B",,0,,0,,D
U106Z6P,"Opatov",50.02823,14.50805,"P",,0,,0,,F
U106Z101P,"Opatov",50.02786,14.50849,"P",,0,U106S1,2,,1
U106Z102P,"Opatov",50.02792,14.50990,"P",,0,U106S1,2,,2
U107Z1P,"Škola Dubeč",50.06325,14.59140,"P",,0,,0,,A
U107Z1,"Škola Dubeč",50.06325,14.59140,"B",,0,,0,,A
U107Z2P,"Škola Dubeč",50.06258,14.59055,"P",,0,,0,,B
U107Z2,"Škola Dubeč",50.06258,14.59055,"B",,0,,0,,B
U108Z1P,"Dubeček",50.05602,14.58007,"P",,0,,0,,A
U108Z1,"Dubeček",50.05602,14.58007,"B",,0,,0,,A
U108Z2P,"Dubeček",50.05597,14.57982,"P",,0,,0,,B
U108Z2,"Dubeček",50.05597,14.57982,"B",,0,,0,,B
U109Z1P,"Důstojnické domy",50.12427,14.53197,"P",,0,,0,,A
U109Z1,"Důstojnické domy",50.12427,14.53197,"0",,0,,0,,A
U109Z2P,"Důstojnické domy",50.12470,14.53235,"P",,0,,0,,B
U109Z2,"Důstojnické domy",50.12470,14.53235,"0",,0,,0,,B
U110Z1P,"Dvorce",50.04773,14.41438,"P",,0,,1,,A
U110Z2P,"Dvorce",50.04718,14.41395,"P",,0,,1,,B
U110Z5P,"Dvorce",50.04714,14.41504,"P",,0,,0,,E
U110Z6P,"Dvorce",50.04690,14.41490,"P",,0,,0,,F
U110Z7P,"Dvorce",50.04654,14.41504,"P",,0,,0,,G
U110Z8P,"Dvorce",50.04666,14.41537,"P",,0,,0,,H
U111Z1P,"Výhledské náměstí",50.13509,14.37332,"P",,0,,0,,A
U111Z1,"Výhledské náměstí",50.13509,14.37332,"B",,0,,0,,A
U111Z2P,"Výhledské náměstí",50.13498,14.37323,"P",,0,,0,,B
U111Z2,"Výhledské náměstí",50.13498,14.37323,"B",,0,,0,,B
U112Z1P,"Dyrinka",50.10765,14.37447,"P",,0,,0,,A
U112Z2P,"Dyrinka",50.10825,14.37495,"P",,0,,0,,B
U113Z1P,"Hlušičkova",50.06401,14.31641,"P",,0,,1,,A
U113Z2P,"Hlušičkova",50.06371,14.31566,"P",,0,,1,,B
U113Z3P,"Hlušičkova",50.06392,14.31587,"P",,0,,0,,C
U113Z3,"Hlušičkova",50.06392,14.31587,"0",,0,,0,,C
U113Z4P,"Hlušičkova",50.06395,14.31650,"P",,0,,0,,D
U113Z4,"Hlušičkova",50.06395,14.31650,"0",,0,,0,,D
U114Z1P,"Krystalová",50.15507,14.52245,"P",,0,,0,,A
U114Z1,"Krystalová",50.15507,14.52245,"B",,0,,0,,A
U114Z3P,"Krystalová",50.15476,14.52233,"P",,0,,0,,C
U114Z3,"Krystalová",50.15476,14.52233,"B",,0,,0,,C
U115Z1P,"Nádraží Holešovice",50.10967,14.43753,"P",,0,,1,,A
U115Z2P,"Nádraží Holešovice",50.11030,14.43734,"P",,0,,1,,B
U115Z3P,"Nádraží Holešovice",50.10818,14.44000,"P",,0,,1,,C
U115Z4P,"Nádraží Holešovice",50.10808,14.44087,"P",,0,,1,,D
U115Z6P,"Nádraží Holešovice",50.10881,14.43985,"P",,0,,0,,F
U115Z8P,"Nádraží Holešovice",50.10867,14.44087,"P",,0,,0,,H
U115Z9P,"Nádraží Holešovice",50.10844,14.44092,"P",,0,,0,,I
U115Z101P,"Nádraží Holešovice",50.10929,14.43977,"P",,0,U115S1,1,,1
U115Z102P,"Nádraží Holešovice",50.10854,14.44037,"P",,0,U115S1,1,,2
U116Z1P,"Farkáň",50.06068,14.38100,"P",,0,,0,,A
U116Z2P,"Farkáň",50.06045,14.38087,"P",,0,,0,,B
U117Z1P,"Filmové ateliéry",50.03120,14.39229,"P",,0,,0,,A
U117Z2P,"Filmové ateliéry",50.03092,14.39229,"P",,0,,0,,B
U117Z3P,"Filmové ateliéry",50.03102,14.39169,"P",,0,,0,,C
U118Z1P,"Flora",50.07792,14.46152,"P",,0,,1,,A
U118Z2P,"Flora",50.07788,14.46243,"P",,0,,1,,B
U118Z3P,"Flora",50.07834,14.46090,"P",,0,,0,,C
U118Z4P,"Flora",50.07832,14.46063,"P",,0,,0,,D
U118Z101P,"Flora",50.07827,14.46330,"P",,0,U118S1,2,,1
U118Z102P,"Flora",50.07829,14.46189,"P",,0,U118S1,2,,2
U120Z1P,"Frančíkova",50.01083,14.35682,"P",,0,,0,,A
U120Z1,"Frančíkova",50.01083,14.35682,"0",,0,,0,,A
U120Z2P,"Frančíkova",50.01035,14.35693,"P",,0,,0,,B
U120Z2,"Frančíkova",50.01035,14.35693,"0",,0,,0,,B
U121Z1P,"Franty Kocourka",50.06065,14.40337,"P",,0,,0,,A
U122Z1P,"Náměstí U Lva",50.03542,14.31580,"P",,0,,0,,A
U122Z1,"Náměstí U Lva",50.03542,14.31580,"0",,0,,0,,A
U122Z2P,"Náměstí U Lva",50.03519,14.31555,"P",,0,,0,,B
U122Z2,"Náměstí U Lva",50.03519,14.31555,"0",,0,,0,,B
U123Z1P,"Fruta",50.04307,14.58210,"P",,0,,0,,A
U123Z1,"Fruta",50.04307,14.58210,"B",,0,,0,,A
U123Z2P,"Fruta",50.04390,14.58093,"P",,0,,0,,B
U123Z2,"Fruta",50.04390,14.58093,"B",,0,,0,,B
U124Z1P,"Filosofská",50.02200,14.42827,"P",,0,,0,,A
U124Z2P,"Filosofská",50.02184,14.42813,"P",,0,,0,,B
U125Z1P,"Fryčovická",50.13942,14.50514,"P",,0,,0,,A
U125Z1,"Fryčovická",50.13942,14.50514,"0",,0,,0,,A
U125Z2P,"Fryčovická",50.13914,14.50469,"P",,0,,0,,B
U125Z2,"Fryčovická",50.13914,14.50469,"0",,0,,0,,B
U126Z1P,"Nádraží Podbaba",50.11233,14.39416,"P",,0,,0,,A
U126Z1,"Nádraží Podbaba",50.11233,14.39416,"B",,0,,0,,A
U126Z2P,"Nádraží Podbaba",50.11119,14.39408,"P",,0,,1,,B
U126Z2,"Nádraží Podbaba",50.11119,14.39408,"B",,0,,1,,B
U126Z3P,"Nádraží Podbaba",50.11193,14.39412,"P",,0,,1,,C
U127Z1P,"Na Staré cestě",50.03834,14.44199,"P",,0,,0,,A
U127Z2P,"Na Staré cestě",50.03877,14.44119,"P",,0,,0,,B
U128Z1P,"Habrová",50.08805,14.49143,"P",,0,,0,,A
U128Z2P,"Habrová",50.08794,14.49067,"P",,0,,0,,B
U128Z3P,"Habrová",50.08789,14.49042,"P",,0,,0,,C
U129Z1P,"Hadovitá",50.05156,14.45673,"P",,0,,0,,A
U129Z2P,"Hadovitá",50.05151,14.45756,"P",,0,,0,,B
U130Z1P,"Hadovka",50.09942,14.37514,"P",,0,,1,,A
U130Z2P,"Hadovka",50.09955,14.37571,"P",,0,,1,,B
U131Z1P,"Hájek",50.05052,14.62808,"P",,0,,0,,A
U131Z1,"Hájek",50.05052,14.62808,"B",,0,,0,,A
U131Z2P,"Hájek",50.04969,14.62813,"P",,0,,0,,B
U131Z2,"Hájek",50.04969,14.62813,"B",,0,,0,,B
U132Z1P,"Hájová",50.01735,14.65258,"P",,0,,0,,A
U132Z2P,"Hájová",50.01752,14.65283,"P",,0,,0,,B
U133Z1P,"Hanspaulka",50.10421,14.37298,"P",,0,,0,,A
U133Z2P,"Hanspaulka",50.10517,14.37307,"P",,0,,0,,B
U134Z1P,"Nádraží Libeň",50.10211,14.50219,"P",,0,,1,,A
U134Z2P,"Nádraží Libeň",50.10200,14.50246,"P",,0,,1,,B
U134Z4P,"Nádraží Libeň",50.10117,14.50256,"P",,0,,0,,D
U134Z5P,"Nádraží Libeň",50.10285,14.50320,"P",,0,,0,,E
U135Z1P,"Hloubětín",50.10618,14.53669,"P",,0,,2,,A
U135Z2P,"Hloubětín",50.10617,14.53757,"P",,0,,2,,B
U135Z3P,"Hloubětín",50.10580,14.53858,"P",,0,,0,,C
U135Z4P,"Hloubětín",50.10603,14.53748,"P",,0,,0,,D
U135Z5P,"Hloubětín",50.10629,14.53682,"P",,0,,0,,E
U135Z101P,"Hloubětín",50.10671,14.53640,"P"," ",0,U135S1,0,U135L2,1
U135Z102P,"Hloubětín",50.10667,14.53637,"P"," ",0,U135S1,0,U135L2,2
U136Z1P,"Lnářská",50.02825,14.59796,"P",,0,,0,,A
U136Z1,"Lnářská",50.02825,14.59796,"B",,0,,0,,A
U136Z2P,"Lnářská",50.02817,14.59709,"P",,0,,0,,B
U136Z2,"Lnářská",50.02817,14.59709,"B",,0,,0,,B
U137Z1P,"Hejtmanská",50.10539,14.55703,"P",,0,,0,,A
U137Z2P,"Hejtmanská",50.10529,14.55720,"P",,0,,0,,B
U138Z1P,"Hellichova",50.08566,14.40417,"P",,0,,1,,A
U138Z2P,"Hellichova",50.08419,14.40447,"P",,0,,1,,B
U139Z1P,"Hercovka",50.12207,14.45122,"P",,0,,2,,A
U139Z2P,"Hercovka",50.12185,14.45330,"P",,0,,2,,B
U140Z1P,"Hládkov",50.09068,14.38554,"P",,0,,1,,A
U140Z2P,"Hládkov",50.09008,14.38586,"P",,0,,1,,B
U140Z5P,"Hládkov",50.08984,14.38621,"P",,0,,0,,E
U140Z6P,"Hládkov",50.08970,14.38600,"P",,0,,0,,F
U141Z1P,"Hlavní",50.04623,14.48762,"P",,0,,0,,A
U141Z2P,"Hlavní",50.04689,14.48677,"P",,0,,0,,B
U141Z3P,"Hlavní",50.04707,14.48656,"P",,0,,0,,C
U142Z1P,"Hlavní nádraží",50.08608,14.43511,"P",,0,,1,,A
U142Z2P,"Hlavní nádraží",50.08569,14.43593,"P",,0,,1,,B
U142Z3P,"Hlavní nádraží",50.08294,14.43478,"P",,0,,0,,C
U142Z4P,"Hlavní nádraží",50.08322,14.43460,"P",,0,,0,,D
U142Z101P,"Hlavní nádraží",50.08390,14.43449,"P",,0,U142S1,1,,1
U142Z102P,"Hlavní nádraží",50.08311,14.43379,"P",,0,U142S1,1,,2
U143Z1P,"Hlohová",50.05643,14.50200,"P",,0,,0,,A
U143Z2P,"Hlohová",50.05635,14.50227,"P",,0,,0,,B
U144Z1P,"Starý Hloubětín",50.10435,14.52991,"P",,0,,1,,A
U144Z2P,"Starý Hloubětín",50.10402,14.53021,"P",,0,,2,,B
U144Z5P,"Starý Hloubětín",50.10541,14.52928,"P",,0,,1,,E
U144Z6P,"Starý Hloubětín",50.10484,14.52929,"P",,0,,1,,F
U145Z1,"Mladějovská",50.13255,14.56035,"B",,0,,0,,A
U145Z2,"Mladějovská",50.13271,14.56045,"B",,0,,0,,B
U146Z1P,"Nádraží Hlubočepy",50.04103,14.39378,"P",,0,,0,,A
U146Z2P,"Nádraží Hlubočepy",50.04152,14.39459,"P",,0,,0,,B
U147Z3P,"Hlubočepy",50.04180,14.40439,"P",,0,,0,,C
U147Z4P,"Hlubočepy",50.04215,14.40476,"P",,0,,0,,D
U147Z7P,"Hlubočepy",50.04280,14.40441,"P",,0,,0,,G
U147Z8P,"Hlubočepy",50.04270,14.40422,"P",,0,,0,,H
U148Z1P,"Holečkova",50.07422,14.39497,"P",,0,,0,,A
U148Z2P,"Holečkova",50.07432,14.39582,"P",,0,,0,,B
U149Z1P,"Holyně",50.02978,14.35716,"P",,0,,0,,A
U149Z2P,"Holyně",50.02963,14.35671,"P",,0,,0,,B
U150Z1P,"Weberova",50.07350,14.35550,"P",,0,,0,,A
U150Z2P,"Weberova",50.07350,14.35625,"P",,0,,0,,B
U151Z1P,"Horčičkova",50.03200,14.53442,"P",,0,,0,,A
U151Z1,"Horčičkova",50.03200,14.53442,"0",,0,,0,,A
U151Z2P,"Horčičkova",50.03178,14.53373,"P",,0,,0,,B
U151Z2,"Horčičkova",50.03178,14.53373,"0",,0,,0,,B
U152Z1P,"Horky",50.06145,14.44663,"P",,0,,1,,A
U152Z2P,"Horky",50.06166,14.44634,"P",,0,,1,,B
U153Z1P,"Horní cesta",50.03327,14.39645,"P",,0,,0,,A
U154Z1P,"Boloňská",50.04718,14.55570,"P",,0,,0,,A
U154Z2P,"Boloňská",50.04798,14.55671,"P",,0,,0,,B
U154Z3P,"Boloňská",50.04825,14.55658,"P",,0,,0,,C
U154Z4P,"Boloňská",50.04750,14.55567,"P",,0,,0,,D
U155Z1,"Na Kovárně",50.11782,14.62802,"B",,0,,0,,A
U155Z2,"Na Kovárně",50.11803,14.62874,"B",,0,,0,,B
U156Z1P,"Průchova",50.06239,14.36597,"P",,0,,0,,A
U156Z2P,"Průchova",50.06260,14.36642,"P",,0,,0,,B
U157Z1P,"Bořislavka",50.09852,14.36455,"P",,0,,1,,A
U157Z2P,"Bořislavka",50.09857,14.36378,"P",,0,,1,,B
U157Z3P,"Bořislavka",50.09872,14.36414,"P",,0,,0,,C
U157Z4P,"Bořislavka",50.09905,14.36469,"P",,0,,0,,D
U157Z4,"Bořislavka",50.09905,14.36469,"B",,0,,0,,D
U157Z5,"Bořislavka",50.09868,14.36360,"B",,0,,0,,E
U157Z6P,"Bořislavka",50.09921,14.36468,"P",,0,,0,,F
U157Z6,"Bořislavka",50.09921,14.36468,"B",,0,,0,,F
U157Z74,"Bořislavka",50.09905,14.36469,"B",,0,,0,,D
U157Z101P,"Bořislavka",50.09831,14.36283,"P",,0,U157S1,1,U157L2,1
U157Z102P,"Bořislavka",50.09837,14.36282,"P",,0,U157S1,1,U157L2,2
U158Z1P,"Hostavice",50.09022,14.56348,"P",,0,,0,,A
U158Z2P,"Hostavice",50.09002,14.56318,"P",,0,,0,,B
U159Z1P,"Benice",50.01357,14.60498,"P",,0,,0,,A
U159Z2P,"Benice",50.01340,14.60533,"P",,0,,0,,B
U159Z2,"Benice",50.01340,14.60533,"B",,0,,0,,B
U159Z4,"Benice",50.01335,14.60507,"B",,0,,0,,D
U160Z1P,"Hostivařské náměstí",50.05012,14.52630,"P",,0,,0,,A
U160Z2P,"Hostivařské náměstí",50.05013,14.52643,"P",,0,,0,,B
U161Z1P,"Hostýnská",50.08107,14.49553,"P",,0,,0,,A
U161Z2P,"Hostýnská",50.08132,14.49552,"P",,0,,0,,B
U162Z5P,"Čínská",50.10895,14.39467,"P",,0,,0,,E
U162Z5,"Čínská",50.10895,14.39467,"0",,0,,0,,E
U162Z6P,"Čínská",50.10901,14.39394,"P",,0,,0,,F
U162Z6,"Čínská",50.10901,14.39394,"0",,0,,0,,F
U163Z1P,"Hradčanská",50.09730,14.40487,"P",,0,,1,,A
U163Z2P,"Hradčanská",50.09721,14.40385,"P",,0,,1,,B
U163Z5P,"Hradčanská",50.09818,14.40535,"P",,0,,0,,E
U163Z6P,"Hradčanská",50.09812,14.40522,"P",,0,,0,,F
U163Z9P,"Hradčanská",50.09734,14.40609,"P",,0,,0,,I
U163Z10P,"Hradčanská",50.09700,14.40277,"P",,0,,0,,J
U163Z11P,"Hradčanská (ul. Badeniho)",50.09648,14.40817,"P",,0,,2,,K
U163Z12P,"Hradčanská (ul. Badeniho)",50.09652,14.40831,"P",,0,,2,,L
U163Z101P,"Hradčanská",50.09721,14.40378,"P",,0,U163S1,2,,1
U163Z102P,"Hradčanská",50.09767,14.40254,"P",,0,U163S1,2,,2
U164Z3,"Hrnčíře",49.99686,14.51764,"B",,0,,0,,C
U164Z4,"Hrnčíře",49.99891,14.51719,"B",,0,,0,,D
U165Z1,"Hrnčířský hřbitov",50.00166,14.51600,"B",,0,,0,,A
U165Z2P,"Hrnčířský hřbitov",50.00306,14.51652,"P",,0,,0,,B
U165Z2,"Hrnčířský hřbitov",50.00306,14.51652,"B",,0,,0,,B
U165Z3P,"Hrnčířský hřbitov",50.00283,14.51507,"P",,0,,0,,C
U165Z5,"Hrnčířský hřbitov",50.00233,14.51785,"B",,0,,0,,E
U166Z1P,"Toulcův dvůr",50.04785,14.51908,"P",,0,,0,,A
U166Z2P,"Toulcův dvůr",50.04775,14.51960,"P",,0,,0,,B
U167Z1P,"Ďáblický hřbitov",50.13740,14.47877,"P",,0,,0,,A
U167Z1,"Ďáblický hřbitov",50.13740,14.47877,"0",,0,,0,,A
U167Z2P,"Ďáblický hřbitov",50.13778,14.47866,"P",,0,,0,,B
U167Z2,"Ďáblický hřbitov",50.13778,14.47866,"0",,0,,0,,B
U168Z1P,"Hřebenka",50.07510,14.39035,"P",,0,,0,,A
U168Z2P,"Hřebenka",50.07507,14.38987,"P",,0,,0,,B
U169Z1P,"Hříbková",50.02040,14.58047,"P",,0,,0,,A
U169Z2P,"Hříbková",50.02062,14.57992,"P",,0,,0,,B
U170Z1P,"Hulická",50.07777,14.66027,"P",,0,,0,,A
U170Z1,"Hulická",50.07777,14.66027,"B",,0,,0,,A
U170Z2P,"Hulická",50.07728,14.65995,"P",,0,,0,,B
U170Z2,"Hulická",50.07728,14.65995,"B",,0,,0,,B
U170Z3P,"Hulická",50.07798,14.66011,"P",,0,,0,,C
U171Z1P,"Letecké muzeum",50.12582,14.53570,"P",,0,,0,,A
U171Z1,"Letecké muzeum",50.12582,14.53570,"0",,0,,0,,A
U171Z2P,"Letecké muzeum",50.12617,14.53608,"P",,0,,0,,B
U171Z2,"Letecké muzeum",50.12617,14.53608,"0",,0,,0,,B
U172Z1P,"Husinecká",50.08509,14.44449,"P",,0,,1,,A
U172Z2P,"Husinecká",50.08493,14.44535,"P",,0,,1,,B
U173Z1P,"Hutě",50.10841,14.55851,"P",,0,,0,,A
U173Z2P,"Hutě",50.10884,14.55644,"P",,0,,0,,B
U174Z3P,"Nádraží Jinonice",50.05643,14.37086,"P",,0,,0,,C
U174Z4P,"Nádraží Jinonice",50.05667,14.37091,"P",,0,,0,,D
U176Z1P,"Hybšmanka",50.07795,14.38045,"P",,0,,0,,A
U176Z2P,"Hybšmanka",50.07792,14.38195,"P",,0,,0,,B
U177Z1P,"Výzkumný ústav vodohospodářský",50.11556,14.39328,"P",,0,,0,,A
U177Z1,"Výzkumný ústav vodohospodářský",50.11556,14.39328,"B",,0,,0,,A
U177Z2P,"Výzkumný ústav vodohospodářský",50.11650,14.39197,"P",,0,,0,,B
U177Z2,"Výzkumný ústav vodohospodářský",50.11650,14.39197,"B",,0,,0,,B
U178Z1P,"Sídliště Zličín",50.06043,14.29295,"P",,0,,0,,A
U178Z1,"Sídliště Zličín",50.06043,14.29295,"B",,0,,0,,A
U178Z2P,"Sídliště Zličín",50.06004,14.29353,"P",,0,,0,,B
U178Z2,"Sídliště Zličín",50.06004,14.29353,"B",,0,,0,,B
U179Z1P,"Vinořský hřbitov",50.14534,14.58140,"P",,0,,0,,A
U179Z1,"Vinořský hřbitov",50.14534,14.58140,"B",,0,,0,,A
U179Z2P,"Vinořský hřbitov",50.14487,14.58035,"P",,0,,0,,B
U179Z2,"Vinořský hřbitov",50.14487,14.58035,"B",,0,,0,,B
U179Z3,"Vinořský hřbitov",50.14521,14.57838,"B",,0,,0,,C
U179Z4,"Vinořský hřbitov",50.14435,14.57920,"B",,0,,0,,D
U180Z1P,"Chmelnice",50.09256,14.48696,"P",,0,,1,,A
U180Z2P,"Chmelnice",50.09249,14.48584,"P",,0,,1,,B
U181Z1P,"Chodovec",50.03953,14.49044,"P",,0,,0,,A
U181Z2P,"Chodovec",50.03976,14.49062,"P",,0,,0,,B
U182Z1P,"Na Petynce",50.08862,14.38089,"P",,0,,0,,A
U182Z2P,"Na Petynce",50.08775,14.38181,"P",,0,,0,,B
U183Z1P,"Chodovská",50.05690,14.46838,"P",,0,,1,,A
U183Z2P,"Chodovská",50.05685,14.46927,"P",,0,,1,,B
U183Z3P,"Chodovská",50.05621,14.47149,"P",,0,,0,,C
U183Z4P,"Chodovská",50.05625,14.47179,"P",,0,,0,,D
U184Z1P,"Škola Radlice",50.06002,14.39400,"P",,0,,0,,A
U184Z2P,"Škola Radlice",50.06031,14.39502,"P",,0,,0,,B
U184Z3P,"Škola Radlice",50.05949,14.39348,"P",,0,,1,,C
U184Z4P,"Škola Radlice",50.05945,14.39287,"P",,0,,1,,D
U184Z13P,"Škola Radlice",50.05949,14.39348,"P",,0,,1,,C
U184Z14P,"Škola Radlice",50.05945,14.39287,"P",,0,,1,,D
U185Z1P,"Točná",49.97280,14.43180,"P",,0,,0,,A
U185Z2P,"Točná",49.97255,14.43175,"P",,0,,0,,B
U185Z2,"Točná",49.97255,14.43175,"B",,0,,0,,B
U185Z11,"Točná",49.97280,14.43180,"B",,0,,0,,A
U186Z1,"Cholupický vrch",49.99415,14.43493,"B",,0,,0,,A
U186Z2,"Cholupický vrch",49.99448,14.43445,"B",,0,,0,,B
U187Z1P,"Chotkovy sady",50.09551,14.40876,"P",,0,,2,,A
U187Z2P,"Chotkovy sady",50.09531,14.40902,"P",,0,,1,,B
U188Z1P,"Chvaly",50.11267,14.59722,"P",,0,,0,,A
U188Z1,"Chvaly",50.11267,14.59722,"0",,0,,0,,A
U188Z2P,"Chvaly",50.11250,14.59458,"P",,0,,0,,B
U188Z2,"Chvaly",50.11250,14.59458,"0",,0,,0,,B
U189Z1P,"Kavkazská",50.06955,14.46602,"P",,0,,0,,A
U189Z3P,"Kavkazská",50.06958,14.46525,"P",,0,,0,,C
U190Z1P,"I. P. Pavlova",50.07554,14.43059,"P",,0,,1,,A
U190Z2P,"I. P. Pavlova",50.07541,14.43169,"P",,0,,1,,B
U190Z3P,"I. P. Pavlova",50.07645,14.43188,"P",,0,,2,,C
U190Z4P,"I. P. Pavlova",50.07594,14.43197,"P",,0,,1,,D
U190Z5P,"I. P. Pavlova",50.07475,14.42903,"P",,0,,0,,E
U190Z6P,"I. P. Pavlova",50.07505,14.43028,"P",,0,,0,,F
U190Z9P,"I. P. Pavlova",50.07494,14.42899,"P",,0,,0,,I
U190Z101P,"I.P.Pavlova",50.07433,14.43037,"P"," ",0,U190S1,1,U190L2,
U190Z102P,"I.P.Pavlova",50.07433,14.43025,"P"," ",0,U190S1,1,U190L2,
U191Z1P,"Italská",50.07803,14.43652,"P",,0,,2,,A
U191Z2P,"Italská",50.07829,14.43556,"P",,0,,2,,B
U192Z1P,"Poliklinika Zahradní Město",50.05658,14.49747,"P",,0,,0,,A
U192Z2P,"Poliklinika Zahradní Město",50.05647,14.49646,"P",,0,,0,,B
U193Z1P,"Jahodnice",50.08744,14.55808,"P",,0,,0,,A
U193Z2P,"Jahodnice",50.08762,14.55776,"P",,0,,0,,B
U194Z1P,"Jalodvorská",50.01397,14.45713,"P",,0,,0,,A
U194Z1,"Jalodvorská",50.01397,14.45713,"0",,0,,0,,A
U194Z2P,"Jalodvorská",50.01337,14.45772,"P",,0,,0,,B
U194Z2,"Jalodvorská",50.01337,14.45772,"0",,0,,0,,B
U195Z1P,"Přeštická",50.04459,14.51232,"P",,0,,0,,A
U195Z2P,"Přeštická",50.04479,14.51247,"P",,0,,0,,B
U196Z1P,"Jankovcova",50.11017,14.44488,"P",,0,,0,,A
U196Z2P,"Jankovcova",50.10889,14.44385,"P",,0,,0,,B
U197Z1,"Na Radosti",50.06052,14.29897,"0",,0,,0,,A
U198Z1P,"Korytná",50.06440,14.49372,"P",,0,,0,,A
U198Z2P,"Korytná",50.06519,14.49287,"P",,0,,0,,B
U199Z1P,"Jenerálka",50.10785,14.35384,"P",,0,,0,,A
U199Z1,"Jenerálka",50.10785,14.35384,"B",,0,,0,,A
U199Z3P,"Jenerálka",50.10742,14.35348,"P",,0,,0,,C
U199Z3,"Jenerálka",50.10742,14.35348,"B",,0,,0,,C
U200Z1P,"Jeřická",50.10810,14.60942,"P",,0,,0,,A
U200Z2P,"Jeřická",50.10870,14.60905,"P",,0,,0,,B
U201Z1P,"Jezerka",50.05748,14.44307,"P",,0,,0,,A
U201Z2P,"Jezerka",50.05720,14.44303,"P",,0,,0,,B
U202Z2P,"Bakovská",50.13422,14.54929,"P",,0,,0,,B
U202Z2,"Bakovská",50.13422,14.54929,"B",,0,,0,,B
U202Z3P,"Bakovská",50.13472,14.54938,"P",,0,,0,,C
U202Z3,"Bakovská",50.13472,14.54938,"B",,0,,0,,C
U202Z4P,"Bakovská",50.13455,14.54920,"P",,0,,0,,D
U203Z1P,"Jindřišská",50.08508,14.43016,"P",,0,,1,,A
U203Z2P,"Jindřišská",50.08532,14.43078,"P",,0,,1,,B
U204Z1,"Drazdecká",49.99591,14.51854,"B",,0,,0,,A
U205Z1P,"Stará Stodůlecká",50.04950,14.35698,"P",,0,,0,,A
U205Z2P,"Stará Stodůlecká",50.04927,14.35762,"P",,0,,0,,B
U206Z1P,"Jinonická",50.06939,14.37752,"P",,0,,0,,A
U207Z1P,"Jiráskova čtvrť",50.09410,14.54590,"P",,0,,0,,A
U207Z2P,"Jiráskova čtvrť",50.09402,14.54640,"P",,0,,0,,B
U207Z3P,"Kyjský hřbitov",50.09320,14.54673,"P",,0,,0,,C
U207Z4P,"Kyjský hřbitov",50.09250,14.54710,"P",,0,,0,,D
U208Z1P,"Jiráskovo náměstí",50.07625,14.41416,"P",,0,,1,,A
U208Z2P,"Jiráskovo náměstí",50.07615,14.41400,"P",,0,,1,,B
U208Z3P,"Jiráskovo náměstí",50.07582,14.41322,"P",,0,,0,,C
U208Z4P,"Jiráskovo náměstí",50.07563,14.41411,"P",,0,,0,,D
U209Z1P,"Jiřího z Poděbrad",50.07726,14.45047,"P",,0,,2,,A
U209Z2P,"Jiřího z Poděbrad",50.07711,14.44869,"P",,0,,2,,B
U209Z101P,"Jiřího z Poděbrad",50.07780,14.45146,"P",,0,U209S1,2,,1
U209Z102P,"Jiřího z Poděbrad",50.07764,14.45004,"P",,0,U209S1,2,,2
U210Z1P,"Jižní Město",50.03432,14.53838,"P",,0,,0,,A
U210Z2P,"Jižní Město",50.03444,14.53759,"P",,0,,0,,B
U211Z1P,"Nad Závistí",49.98052,14.40420,"P",,0,,0,,A
U212Z1P,"Jordánská",50.11104,14.56279,"P",,0,,0,,A
U213Z1P,"Juliska",50.11070,14.38592,"P",,0,,0,,A
U213Z2P,"Juliska",50.11013,14.38620,"P",,0,,0,,B
U214Z1P,"K Cikánce",49.99750,14.34172,"P",,0,,0,,A
U214Z1,"K Cikánce",49.99750,14.34172,"0",,0,,0,,A
U214Z2P,"K Cikánce",49.99775,14.34175,"P",,0,,0,,B
U214Z2,"K Cikánce",49.99775,14.34175,"0",,0,,0,,B
U215Z1P,"K Dubečku",50.05537,14.56482,"P",,0,,0,,A
U215Z1,"K Dubečku",50.05537,14.56482,"B",,0,,0,,A
U215Z2P,"K Dubečku",50.05528,14.56398,"P",,0,,0,,B
U215Z2,"K Dubečku",50.05528,14.56398,"B",,0,,0,,B
U216Z1P,"K Holyni",50.02030,14.35883,"P",,0,,0,,A
U216Z1,"K Holyni",50.02030,14.35883,"0",,0,,0,,A
U216Z2P,"K Holyni",50.02058,14.36008,"P",,0,,0,,B
U216Z2,"K Holyni",50.02058,14.36008,"0",,0,,0,,B
U218Z1P,"K Letišti",50.09563,14.29354,"P",,0,,0,,A
U218Z2P,"K Letišti",50.09549,14.29338,"P",,0,,0,,B
U218Z3,"K Letišti",50.09634,14.29270,"B",,0,,0,,C
U218Z4,"K Letišti",50.09644,14.29203,"B",,0,,0,,D
U219Z1P,"K Obecním hájovnám",50.04293,14.51507,"P",,0,,0,,A
U219Z2P,"K Obecním hájovnám",50.04324,14.51648,"P",,0,,0,,B
U220Z1P,"K Pitkovičkám",50.02460,14.59063,"P",,0,,0,,A
U220Z2P,"K Pitkovičkám",50.02478,14.59095,"P",,0,,0,,B
U221Z1P,"Karlovy lázně",50.08457,14.41347,"P",,0,,2,,A
U222Z1P,"K Teplárně",50.16874,14.52105,"P",,0,,0,,A
U222Z2P,"K Teplárně",50.16887,14.52132,"P",,0,,0,,B
U223Z1P,"K Tuchoměřicům",50.11610,14.29160,"P",,0,,0,,A
U223Z1,"K Tuchoměřicům",50.11610,14.29160,"B",,0,,0,,A
U223Z2P,"K Tuchoměřicům",50.11588,14.29117,"P",,0,,0,,B
U223Z2,"K Tuchoměřicům",50.11588,14.29117,"B",,0,,0,,B
U224Z1,"K Vystrkovu",49.99968,14.40827,"0",,0,,0,,A
U224Z2,"K Vystrkovu",49.99932,14.41101,"0",,0,,0,,B
U225Z1P,"K Žižkovu",50.09958,14.49609,"P",,0,,0,,A
U225Z2P,"K Žižkovu",50.09941,14.49641,"P",,0,,0,,B
U226Z1P,"Myšlínská",50.06219,14.53462,"P",,0,,0,,A
U226Z1,"Myšlínská",50.06219,14.53462,"0",,0,,0,,A
U226Z2P,"Myšlínská",50.06228,14.53470,"P",,0,,0,,B
U226Z3P,"Myšlínská",50.06202,14.53369,"P",,0,,0,,C
U226Z3,"Myšlínská",50.06202,14.53369,"0",,0,,0,,C
U227Z1P,"Kablo",50.06210,14.53836,"P",,0,,0,,A
U227Z2P,"Kablo",50.06222,14.53837,"P",,0,,0,,B
U227Z3P,"Kablo",50.06149,14.53614,"P",,0,,0,,C
U227Z3,"Kablo",50.06149,14.53614,"0",,0,,0,,C
U227Z4P,"Kablo",50.06287,14.53742,"P",,0,,0,,D
U228Z1P,"Kačerov",50.04197,14.46088,"P",,0,,0,,A
U228Z1,"Kačerov",50.04197,14.46088,"0",,0,,0,,A
U228Z2P,"Kačerov",50.04178,14.46054,"P",,0,,0,,B
U228Z3P,"Kačerov",50.04162,14.46033,"P",,0,,0,,C
U228Z4P,"Kačerov",50.04191,14.46157,"P",,0,,0,,D
U228Z5P,"Kačerov",50.04203,14.46033,"P",,0,,0,,E
U228Z5,"Kačerov",50.04203,14.46033,"0",,0,,0,,E
U228Z81,"Kačerov",50.04197,14.46088,"0",,0,,0,,A
U228Z101P,"Kačerov",50.04198,14.45868,"P",,0,U228S1,2,,1
U228Z102P,"Kačerov",50.04169,14.45994,"P",,0,U228S1,2,,2
U229Z1P,"Kajetánka",50.08652,14.37093,"P",,0,,0,,A
U229Z2P,"Kajetánka",50.08649,14.37226,"P",,0,,0,,B
U230Z1P,"Kalinův mlýn",50.11100,14.36755,"P",,0,,0,,A
U230Z2P,"Kalinův mlýn",50.11117,14.36847,"P",,0,,0,,B
U231Z1P,"Kamenická",50.09948,14.42926,"P",,0,,1,,A
U231Z2P,"Kamenická",50.09971,14.42857,"P",,0,,1,,B
U232Z1,"Kamenolom Zbraslav",49.95942,14.39407,"B",,0,,0,,A
U232Z2,"Kamenolom Zbraslav",49.95993,14.39447,"B",,0,,0,,B
U233Z1P,"Kamýcká",50.13060,14.38275,"P",,0,,0,,A
U233Z2P,"Kamýcká",50.13010,14.38270,"P",,0,,0,,B
U233Z3P,"Kamýcká",50.13068,14.38175,"P",,0,,0,,C
U233Z4P,"Kamýcká",50.13045,14.38181,"P",,0,,0,,D
U234Z1P,"Karenova",50.06339,14.36831,"P",,0,,0,,A
U236Z1P,"Slánská",50.06447,14.30940,"P",,0,,1,,A
U236Z2P,"Slánská",50.06455,14.30853,"P",,0,,1,,B
U236Z3P,"Slánská",50.06458,14.30877,"P",,0,,0,,C
U236Z4P,"Slánská",50.06433,14.30918,"P",,0,,0,,D
U237Z1P,"Karlovo náměstí",50.07530,14.41911,"P",,0,,1,,A
U237Z2P,"Karlovo náměstí",50.07648,14.41926,"P",,0,,1,,B
U237Z3P,"Karlovo náměstí",50.07590,14.41961,"P",,0,,1,,C
U237Z4P,"Moráň",50.07402,14.41873,"P",,0,,1,,D
U237Z5P,"Palackého náměstí",50.07323,14.41525,"P",,0,,1,,E
U237Z6P,"Palackého náměstí",50.07328,14.41432,"P",,0,,1,,F
U237Z7P,"Palackého náměstí (nábřeží)",50.07251,14.41411,"P",,0,,1,,G
U237Z8P,"Palackého náměstí (nábřeží)",50.07195,14.41410,"P",,0,,1,,H
U237Z9P,"Karlovo náměstí",50.07543,14.41889,"P",,0,,0,,I
U237Z10P,"Karlovo náměstí",50.07506,14.41886,"P",,0,,0,,J
U237Z11P,"Karlovo náměstí",50.07520,14.41890,"P",,0,,0,,K
U237Z13P,"Novoměstská radnice",50.07746,14.41952,"P",,0,,1,,M
U237Z101P,"Karlovo náměstí",50.07460,14.41696,"P"," ",0,U237S1,0,U237L3,1
U237Z102P,"Karlovo náměstí",50.07458,14.41699,"P"," ",0,U237S1,0,U237L3,2
U238Z1P,"Karlštejnská",50.05264,14.35958,"P",,0,,0,,A
U238Z2P,"Karlštejnská",50.05265,14.35852,"P",,0,,0,,B
U239Z1P,"Kateřinky",50.02050,14.52027,"P",,0,,0,,A
U239Z1,"Kateřinky",50.02050,14.52027,"B",,0,,0,,A
U239Z2P,"Kateřinky",50.02067,14.52010,"P",,0,,0,,B
U239Z2,"Kateřinky",50.02067,14.52010,"B",,0,,0,,B
U240Z1P,"Kavalírka",50.07004,14.37063,"P",,0,,1,,A
U240Z2P,"Kavalírka",50.07012,14.37109,"P",,0,,1,,B
U240Z3P,"Kavalírka",50.06927,14.36923,"P",,0,,0,,C
U240Z4P,"Kavalírka",50.06989,14.37138,"P",,0,,0,,D
U240Z5P,"Kavalírka",50.07019,14.37117,"P",,0,,0,,E
U241Z1P,"Kazanka",50.11738,14.42750,"P",,0,,0,,A
U241Z2P,"Kazanka",50.11721,14.42858,"P",,0,,0,,B
U242Z1P,"Kbelská",50.10513,14.53204,"P",,0,,1,,A
U242Z2P,"Kbelská",50.10525,14.53291,"P",,0,,1,,B
U242Z3P,"Kbelská",50.10505,14.53247,"P",,0,,0,,C
U242Z4P,"Kbelská",50.10550,14.53330,"P",,0,,0,,D
U243Z1,"Kbely",50.13089,14.55293,"B",,0,,0,,A
U243Z2,"Kbely",50.13090,14.55195,"B",,0,,0,,B
U243Z3P,"Kbely",50.13229,14.55103,"P",,0,,0,,C
U243Z3,"Kbely",50.13229,14.55103,"B",,0,,0,,C
U243Z4P,"Kbely",50.13148,14.55087,"P",,0,,0,,D
U243Z4,"Kbely",50.13148,14.55087,"B",,0,,0,,D
U243Z5P,"Kbely",50.12999,14.55088,"P",,0,,0,,E
U243Z5,"Kbely",50.12999,14.55088,"B",,0,,0,,E
U243Z6P,"Kbely",50.13037,14.55098,"P",,0,,0,,F
U243Z6,"Kbely",50.13037,14.55098,"B",,0,,0,,F
U243Z15P,"Kbely",50.12999,14.55088,"P",,0,,0,,E
U243Z16P,"Kbely",50.13037,14.55098,"P",,0,,0,,F
U244Z1P,"Ke Kaménce",50.07152,14.30242,"P",,0,,0,,A
U244Z2P,"Ke Kaménce",50.07150,14.30248,"P",,0,,0,,B
U245Z1P,"Branické náměstí",50.03435,14.41485,"P",,0,,0,,A
U245Z2P,"Branické náměstí",50.03458,14.41469,"P",,0,,0,,B
U246Z1P,"Ke Schodům",50.01418,14.41582,"P",,0,,0,,A
U247Z1P,"Ke Smrčině",50.01768,14.52516,"P",,0,,0,,A
U247Z1,"Ke Smrčině",50.01768,14.52516,"B",,0,,0,,A
U247Z2P,"Ke Smrčině",50.01787,14.52522,"P",,0,,0,,B
U247Z2,"Ke Smrčině",50.01787,14.52522,"B",,0,,0,,B
U248Z1P,"Ke Stadionu",50.14764,14.52475,"P",,0,,0,,A
U248Z2P,"Ke Stadionu",50.14770,14.52482,"P",,0,,0,,B
U249Z1P,"Ke Stírce",50.12267,14.45587,"P",,0,,2,,A
U249Z2P,"Ke Stírce",50.12299,14.45615,"P",,0,,1,,B
U251Z1P,"Kelerka",50.11532,14.49020,"P",,0,,0,,A
U251Z1,"Kelerka",50.11532,14.49020,"0",,0,,0,,A
U251Z2P,"Kelerka",50.11518,14.48900,"P",,0,,0,,B
U251Z2,"Kelerka",50.11518,14.48900,"0",,0,,0,,B
U252Z1P,"Kesnerka",50.05788,14.40207,"P",,0,,0,,A
U253Z1P,"Khodlova",50.11029,14.60407,"P",,0,,0,,A
U254Z1P,"Klamovka",50.07063,14.38003,"P",,0,,1,,A
U254Z2P,"Klamovka",50.07058,14.37914,"P",,0,,1,,B
U254Z3P,"Klamovka",50.07103,14.38150,"P",,0,,0,,C
U254Z4P,"Klamovka",50.07142,14.37986,"P",,0,,0,,D
U254Z5P,"Klamovka",50.07157,14.37960,"P",,0,,0,,E
U254Z6P,"Klamovka",50.06964,14.37863,"P",,0,,0,,F
U255Z1P,"Klánova",50.02137,14.42378,"P",,0,,0,,A
U255Z2P,"Klánova",50.02135,14.42335,"P",,0,,0,,B
U256Z1P,"Klánovice",50.09895,14.68594,"P",,0,,0,,A
U256Z2P,"Klánovice",50.09900,14.68543,"P",,0,,0,,B
U257Z1P,"Klárův ústav",50.02770,14.45715,"P",,0,,0,,A
U257Z2P,"Klárův ústav",50.02830,14.45673,"P",,0,,0,,B
U258Z101P,"Lužiny",50.04448,14.32974,"P",,0,U258S1,1,,1
U258Z102P,"Lužiny",50.04451,14.33114,"P",,0,U258S1,1,,2
U259Z1P,"Klíčov",50.11690,14.51427,"P",,0,,0,,A
U259Z2P,"Klíčov",50.11674,14.51441,"P",,0,,0,,B
U260Z1P,"Klíčovská",50.11745,14.50795,"P",,0,,0,,A
U260Z2P,"Klíčovská",50.11790,14.50832,"P",,0,,0,,B
U261Z1P,"Klikovka",50.05705,14.42977,"P",,0,,0,,A
U261Z2P,"Klikovka",50.05695,14.43143,"P",,0,,0,,B
U262Z2P,"Korunovační",50.09970,14.42058,"P",,0,,1,,B
U262Z3P,"Korunovační",50.10110,14.41820,"P",,0,,1,,C
U262Z4P,"Korunovační",50.10037,14.42036,"P",,0,,1,,D
U263Z1P,"Kloboučnická",50.06057,14.45093,"P",,0,,0,,A
U263Z3P,"Kloboučnická",50.06030,14.44990,"P",,0,,0,,C
U263Z4P,"Kloboučnická",50.06030,14.44962,"P",,0,,0,,D
U263Z5P,"Kloboučnická",50.06063,14.44853,"P",,0,,0,,E
U264Z1P,"Klukovice",50.03608,14.36650,"P",,0,,0,,A
U264Z2P,"Klukovice",50.03574,14.36685,"P",,0,,0,,B
U265Z1P,"Brumlovka",50.04810,14.45506,"P",,0,,0,,A
U265Z2P,"Brumlovka",50.04779,14.45448,"P",,0,,0,,B
U265Z2,"Brumlovka",50.04779,14.45448,"0",,0,,0,,B
U266Z1P,"Kněžská luka",50.09219,14.49297,"P",,0,,1,,A
U266Z2P,"Kněžská luka",50.09215,14.49248,"P",,0,,1,,B
U266Z3P,"Kněžská luka",50.09198,14.49314,"P",,0,,0,,C
U266Z4P,"Kněžská luka",50.09215,14.49439,"P",,0,,0,,D
U267Z1P,"Služská",50.12467,14.44914,"P",,0,,0,,A
U267Z2P,"Služská",50.12401,14.45062,"P",,0,,0,,B
U268Z1P,"Kodaňská",50.07075,14.46082,"P",,0,,0,,A
U269Z1P,"Koh-i-noor",50.06758,14.46141,"P",,0,,1,,A
U269Z2P,"Koh-i-noor",50.06769,14.46225,"P",,0,,1,,B
U269Z3P,"Koh-i-noor",50.06674,14.46048,"P",,0,,0,,C
U269Z4P,"Koh-i-noor",50.06747,14.46174,"P",,0,,0,,D
U270Z1P,"Kokořínská",50.14570,14.48522,"P",,0,,0,,A
U270Z2P,"Kokořínská",50.14572,14.48505,"P",,0,,0,,B
U271Z1P,"Koleje Jižní Město",50.01728,14.49950,"P",,0,,0,,A
U271Z2P,"Koleje Jižní Město",50.01719,14.50030,"P",,0,,0,,B
U272Z1P,"Divadlo pod Palmovkou",50.10566,14.47275,"P",,0,,1,,A
U273Z1P,"Koleje Větrník",50.08876,14.35120,"P",,0,,0,,A
U274Z1P,"Koloděje",50.06010,14.64052,"P",,0,,0,,A
U274Z2P,"Koloděje",50.06018,14.64088,"P",,0,,0,,B
U274Z2,"Koloděje",50.06018,14.64088,"B",,0,,0,,B
U274Z72,"Koloděje",50.06018,14.64088,"B",,0,,0,,B
U275Z1P,"Kolodějská obora",50.06237,14.62807,"P",,0,,0,,A
U275Z1,"Kolodějská obora",50.06237,14.62807,"B",,0,,0,,A
U275Z2P,"Kolodějská obora",50.06248,14.62764,"P",,0,,0,,B
U275Z2,"Kolodějská obora",50.06248,14.62764,"B",,0,,0,,B
U276Z1P,"Kolonie",50.09329,14.52536,"P",,0,,0,,A
U276Z2P,"Kolonie",50.09349,14.52501,"P",,0,,0,,B
U277Z1P,"Škola Kolovraty",50.01110,14.62768,"P",,0,,0,,A
U277Z2P,"Škola Kolovraty",50.01123,14.62752,"P",,0,,0,,B
U278Z1P,"Zdiměřická",50.02197,14.51773,"P",,0,,0,,A
U278Z1,"Zdiměřická",50.02197,14.51773,"B",,0,,0,,A
U278Z2P,"Zdiměřická",50.02252,14.51745,"P",,0,,0,,B
U278Z2,"Zdiměřická",50.02252,14.51745,"B",,0,,0,,B
U279Z1P,"Komárovská",50.11523,14.62145,"P",,0,,0,,A
U279Z2P,"Komárovská",50.11538,14.62145,"P",,0,,0,,B
U280Z1P,"Komořany",49.99207,14.41042,"P",,0,,0,,A
U280Z2P,"Komořany",49.99030,14.41082,"P",,0,,0,,B
U280Z3P,"Komořany",49.99160,14.41082,"P",,0,,0,,C
U280Z3,"Komořany",49.99160,14.41082,"0",,0,,0,,C
U280Z11,"Komořany",49.99207,14.41042,"0",,0,,0,,A
U281Z1P,"Bavorská",50.05413,14.31087,"P",,0,,0,,A
U281Z3P,"Bavorská",50.05542,14.31018,"P",,0,,0,,C
U281Z4P,"Bavorská",50.05532,14.30980,"P",,0,,0,,D
U281Z6P,"Bavorská",50.05368,14.31191,"P",,0,,0,,F
U282Z1P,"Konvářka",50.05462,14.40183,"P",,0,,0,,A
U283Z1P,"Nad Džbánem",50.09394,14.33672,"P",,0,,1,,A
U283Z2P,"Nad Džbánem",50.09410,14.33720,"P",,0,,1,,B
U283Z3P,"Nad Džbánem",50.09404,14.33769,"P",,0,,0,,C
U283Z4P,"Nad Džbánem",50.09454,14.33903,"P",,0,,0,,BN
U284Z1P,"Korandova",50.02247,14.42108,"P",,0,,0,,A
U284Z2P,"Korandova",50.02270,14.42115,"P",,0,,0,,B
U285Z1P,"Korek",50.10550,14.35960,"P",,0,,0,,A
U285Z2P,"Korek",50.10607,14.36072,"P",,0,,0,,B
U286Z1P,"Háje",50.03046,14.52744,"P",,0,,0,,A
U286Z2P,"Háje",50.03045,14.52700,"P",,0,,0,,B
U286Z3P,"Háje",50.03038,14.52585,"P",,0,,0,,C
U286Z4,"Háje",50.03036,14.52538,"0",,0,,0,,D
U286Z5P,"Háje",50.03067,14.52957,"P",,0,,0,,E
U286Z5,"Háje",50.03067,14.52957,"0",,0,,0,,E
U286Z13P,"Háje",50.03038,14.52585,"P",,0,,0,,C
U286Z72,"Háje",50.03045,14.52700,"0",,0,,0,,B
U286Z101P,"Háje",50.03076,14.52627,"P",,0,U286S1,1,,1
U286Z102P,"Háje",50.03081,14.52767,"P",,0,U286S1,1,,2
U287Z3P,"Ďáblice",50.14851,14.48720,"P",,0,,0,,C
U287Z4P,"Ďáblice",50.14859,14.48682,"P",,0,,0,,D
U287Z5P,"Ďáblice",50.14923,14.48622,"P",,0,,0,,E
U287Z5,"Ďáblice",50.14923,14.48622,"B",,0,,0,,E
U287Z6P,"Ďáblice",50.14836,14.48645,"P",,0,,0,,F
U287Z6,"Ďáblice",50.14836,14.48645,"B",,0,,0,,F
U288Z1P,"Kostrounek",49.96948,14.38230,"P",,0,,0,,A
U288Z2P,"Kostrounek",49.96933,14.38208,"P",,0,,0,,B
U289Z1P,"Kotlářka",50.06956,14.36292,"P",,0,,1,,A
U289Z2P,"Kotlářka",50.06960,14.36201,"P",,0,,1,,B
U289Z3P,"Kotlářka",50.06995,14.36205,"P",,0,,1,,C
U289Z4P,"Kotlářka",50.06985,14.36359,"P",,0,,1,,D
U289Z5P,"Kotlářka",50.07000,14.36205,"P",,0,,1,,E
U289Z6P,"Kotlářka",50.06989,14.36360,"P",,0,,1,,F
U289Z7P,"Kotlářka",50.07072,14.36125,"P",,0,,0,,G
U289Z8P,"Kotlářka",50.07010,14.36122,"P",,0,,0,,H
U290Z1P,"Kovárna",50.11746,14.41660,"P",,0,,0,,A
U290Z2P,"Kovárna",50.11729,14.41658,"P",,0,,0,,B
U291Z1P,"Liběchovská",50.14413,14.47222,"P",,0,,0,,A
U291Z2P,"Liběchovská",50.14398,14.47231,"P",,0,,0,,B
U292Z1P,"Kovošrot",50.06199,14.54229,"P",,0,,0,,A
U292Z2P,"Kovošrot",50.06218,14.54203,"P",,0,,0,,B
U293Z1P,"Králova",50.15935,14.52307,"P",,0,,0,,A
U293Z1,"Králova",50.15935,14.52307,"B",,0,,0,,A
U293Z2P,"Králova",50.15944,14.52587,"P",,0,,0,,B
U293Z2,"Králova",50.15944,14.52587,"B",,0,,0,,B
U294Z1P,"Královice",50.03693,14.63558,"P",,0,,0,,A
U294Z2P,"Královice",50.03715,14.63561,"P",,0,,0,,B
U296Z1P,"Krčská",50.04365,14.44211,"P",,0,,0,,A
U296Z2P,"Krčská",50.04351,14.44291,"P",,0,,0,,B
U297Z1P,"Krčský hřbitov",50.04651,14.43964,"P",,0,,0,,A
U297Z2P,"Krčský hřbitov",50.04605,14.43925,"P",,0,,0,,B
U299Z1P,"Krematorium Strašnice",50.07732,14.48472,"P",,0,,1,,A
U299Z2P,"Krematorium Strašnice",50.07715,14.48561,"P",,0,,1,,B
U300Z1P,"Krocínka",50.11609,14.50347,"P",,0,,0,,A
U300Z2P,"Krocínka",50.11600,14.50288,"P",,0,,0,,B
U301Z1P,"Krymská",50.07198,14.44699,"P",,0,,1,,A
U301Z2P,"Krymská",50.07189,14.44781,"P",,0,,1,,B
U302Z1P,"Křížová",50.06316,14.40471,"P",,0,,1,,A
U302Z2P,"Křížová",50.06297,14.40467,"P",,0,,1,,B
U302Z3P,"Křížová",50.06266,14.40573,"P",,0,,0,,C
U302Z4P,"Křížová",50.06369,14.40549,"P",,0,,0,,D
U303Z1P,"Kublov",50.05440,14.41812,"P",,0,,1,,A
U303Z2P,"Kublov",50.05453,14.41807,"P",,0,,1,,B
U304Z1P,"Ovčí hájek",50.04642,14.34743,"P",,0,,0,,A
U304Z2P,"Ovčí hájek",50.04627,14.34790,"P",,0,,0,,B
U305Z1P,"Kuchyňka",50.11654,14.44933,"P",,0,,0,,A
U305Z2P,"Kuchyňka",50.11668,14.44879,"P",,0,,0,,B
U306Z1P,"Nemocnice Motol",50.07475,14.34045,"P",,0,,0,,A
U306Z1,"Nemocnice Motol",50.07475,14.34045,"0",,0,,0,,A
U306Z2P,"Nemocnice Motol",50.07413,14.33908,"P",,0,,0,,B
U306Z2,"Nemocnice Motol",50.07413,14.33908,"0",,0,,0,,B
U306Z3,"Nemocnice Motol",50.07521,14.34136,"0",,0,,0,,C
U306Z101P,"Nemocnice Motol",50.07555,14.34217,"P",,0,U306S1,1,,1
U306Z102P,"Nemocnice Motol",50.07522,14.34086,"P",,0,U306S1,1,,2
U307Z1P,"Na Proutcích",50.01325,14.50278,"P",,0,,0,,A
U307Z2P,"Na Proutcích",50.01313,14.50265,"P",,0,,0,,B
U308Z1P,"Divadlo Gong",50.10680,14.48860,"P",,0,,1,,A
U308Z2P,"Divadlo Gong",50.10654,14.48809,"P",,0,,1,,B
U309Z1P,"Kunratice",50.01291,14.48829,"P",,0,,0,,A
U309Z2P,"Kunratice",50.01349,14.48673,"P",,0,,0,,B
U310Z1P,"Kutnohorská",50.06365,14.55256,"P",,0,,0,,A
U310Z1,"Kutnohorská",50.06365,14.55256,"0",,0,,0,,A
U310Z2P,"Kutnohorská",50.06443,14.55131,"P",,0,,0,,B
U310Z2,"Kutnohorská",50.06443,14.55131,"0",,0,,0,,B
U311Z1P,"Kvasinská",50.06256,14.64240,"P",,0,,0,,A
U311Z1,"Kvasinská",50.06256,14.64240,"B",,0,,0,,A
U311Z2P,"Kvasinská",50.06299,14.64268,"P",,0,,0,,B
U311Z2,"Kvasinská",50.06299,14.64268,"B",,0,,0,,B
U311Z3,"Kvasinská",50.06264,14.64260,"B",,0,,0,,C
U311Z4P,"Kvasinská",50.06275,14.64303,"P",,0,,0,,D
U311Z4,"Kvasinská",50.06275,14.64303,"B",,0,,0,,D
U312Z1P,"Květnová",50.14277,14.47790,"P",,0,,0,,A
U312Z2P,"Květnová",50.14265,14.47802,"P",,0,,0,,B
U313Z1P,"Kyje",50.09795,14.54942,"P",,0,,0,,A
U313Z2P,"Kyje",50.09763,14.54890,"P",,0,,0,,B
U314Z1P,"Kyselova",50.12618,14.46302,"P",,0,,1,,A
U314Z2P,"Kyselova",50.12614,14.46392,"P",,0,,1,,B
U315Z1P,"Lahovice",49.98987,14.39870,"P",,0,,0,,A
U315Z1,"Lahovice",49.98987,14.39870,"0",,0,,0,,A
U315Z2P,"Lahovice",49.98643,14.39770,"P",,0,,0,,B
U315Z2,"Lahovice",49.98643,14.39770,"0",,0,,0,,B
U316Z1P,"Lahovický most",49.99543,14.39808,"P",,0,,0,,A
U317Z1P,"Lahovičky",50.00006,14.39568,"P",,0,,0,,A
U317Z1,"Lahovičky",50.00006,14.39568,"0",,0,,0,,A
U317Z2P,"Lahovičky",50.00028,14.39592,"P",,0,,0,,B
U317Z2,"Lahovičky",50.00028,14.39592,"0",,0,,0,,B
U317Z11P,"Lahovičky",50.00225,14.40138,"P",,0,,0,,K
U318Z1P,"Sídliště Jahodnice",50.08866,14.55099,"P",,0,,0,,A
U318Z2P,"Sídliště Jahodnice",50.08895,14.55023,"P",,0,,0,,B
U319Z1P,"Laurová",50.06104,14.39767,"P",,0,,1,,A
U319Z2P,"Laurová",50.06113,14.39736,"P",,0,,1,,B
U319Z3P,"Laurová",50.06134,14.39990,"P",,0,,0,,C
U319Z4P,"Laurová",50.06144,14.39958,"P",,0,,0,,D
U319Z11P,"Laurová",50.06104,14.39767,"P",,0,,1,,A
U319Z12P,"Laurová",50.06113,14.39736,"P",,0,,1,,B
U320Z1P,"Zentiva",50.06152,14.54618,"P",,0,,0,,A
U320Z2P,"Zentiva",50.06166,14.54645,"P",,0,,0,,B
U321Z1P,"Dejvická",50.10033,14.39148,"P",,0,,1,,A
U321Z2P,"Dejvická",50.10037,14.39061,"P",,0,,1,,B
U321Z3P,"Vítězné náměstí",50.09953,14.39549,"P",,0,,1,,C
U321Z4P,"Vítězné náměstí",50.10007,14.39553,"P",,0,,1,,D
U321Z5P,"Dejvická",50.10086,14.39420,"P",,0,,0,,E
U321Z5,"Dejvická",50.10086,14.39420,"0",,0,,0,,E
U321Z6P,"Dejvická",50.10137,14.39503,"P",,0,,0,,F
U321Z7P,"Dejvická",50.10149,14.39496,"P",,0,,0,,G
U321Z7,"Dejvická",50.10149,14.39496,"0",,0,,0,,G
U321Z9,"Dejvická",50.10059,14.39268,"0",,0,,0,,I
U321Z12P,"Dejvická",50.10109,14.39213,"P",,0,,0,,L
U321Z13P,"Dejvická",50.10255,14.39410,"P",,0,,0,,M
U321Z18,"Dejvická",50.10060,14.39341,"0",,0,,0,,R
U321Z21P,"Vítězné náměstí",50.09958,14.39538,"P",,0,,0,,T
U321Z22P,"Vítězné náměstí",50.09979,14.39569,"P",,0,,0,,U
U321Z74,"Dejvická",50.10060,14.39341,"0",,0,,0,,R
U321Z81,"Vítězné náměstí",50.09958,14.39538,"0",,0,,0,,T
U321Z82,"Vítězné náměstí",50.09979,14.39569,"0",,0,,0,,U
U321Z101P,"Dejvická",50.10042,14.39317,"P",,0,U321S1,1,U321L2,1
U321Z102P,"Dejvická",50.10051,14.39316,"P",,0,U321S1,1,U321L2,2
U322Z1P,"Lešanská",50.04583,14.48290,"P",,0,,0,,A
U322Z2P,"Lešanská",50.04604,14.48301,"P",,0,,0,,B
U322Z3P,"Lešanská",50.04550,14.48467,"P",,0,,0,,C
U323Z1P,"Sportovní centrum Kbely",50.13508,14.54437,"P",,0,,0,,A
U323Z1,"Sportovní centrum Kbely",50.13508,14.54437,"0",,0,,0,,A
U323Z3P,"Sportovní centrum Kbely",50.13494,14.54323,"P",,0,,0,,C
U323Z3,"Sportovní centrum Kbely",50.13494,14.54323,"0",,0,,0,,C
U324Z1P,"Letenské náměstí",50.09995,14.42409,"P",,0,,1,,A
U324Z2P,"Letenské náměstí",50.10000,14.42312,"P",,0,,1,,B
U325Z1P,"Rychnovská",50.13550,14.51422,"P",,0,,0,,A
U325Z2P,"Rychnovská",50.13475,14.51385,"P",,0,,0,,B
U325Z81,"Rychnovská",50.13550,14.51422,"0",,0,,0,,A
U325Z82,"Rychnovská",50.13475,14.51385,"0",,0,,0,,B
U326Z1P,"Staré Letňany",50.13797,14.51705,"P",,0,,0,,A
U326Z2P,"Staré Letňany",50.13782,14.51680,"P",,0,,0,,B
U327Z1P,"Toužimská",50.13635,14.52240,"P",,0,,0,,A
U327Z1,"Toužimská",50.13635,14.52240,"0",,0,,0,,A
U327Z2P,"Toužimská",50.13620,14.52302,"P",,0,,0,,B
U327Z2,"Toužimská",50.13620,14.52302,"0",,0,,0,,B
U328Z1P,"Lhotecký les",50.01560,14.43718,"P",,0,,0,,A
U328Z2P,"Lhotecký les",50.01570,14.43733,"P",,0,,0,,B
U329Z1P,"Lhotka",50.02105,14.43835,"P",,0,,0,,A
U329Z2P,"Lhotka",50.02079,14.43832,"P",,0,,0,,B
U330Z1P,"Libeňská",50.13660,14.43015,"P",,0,,0,,A
U330Z2P,"Libeňská",50.13772,14.42993,"P",,0,,0,,B
U331Z1P,"Libeňský most",50.10345,14.46488,"P",,0,,2,,A
U331Z2P,"Libeňský most",50.10340,14.46574,"P",,0,,2,,B
U332Z1P,"Střížkov",50.12598,14.48889,"P",,0,,0,,A
U332Z2P,"Střížkov",50.12587,14.48960,"P",,0,,0,,B
U332Z3P,"Střížkov",50.12692,14.48925,"P",,0,,0,,C
U332Z4P,"Střížkov",50.12697,14.48864,"P",,0,,0,,D
U332Z101P,"Střížkov",50.12579,14.48993,"P",,0,U332S1,1,,1
U332Z102P,"Střížkov",50.12655,14.48916,"P",,0,U332S1,1,,2
U333Z1P,"Líbeznická",50.12873,14.45554,"P",,0,,2,,A
U333Z2P,"Líbeznická",50.12917,14.45547,"P",,0,,2,,B
U334Z1P,"Libocká",50.08697,14.32951,"P",,0,,0,,A
U334Z2P,"Libocká",50.08656,14.32898,"P",,0,,0,,B
U335Z1P,"Libuš",50.00787,14.46300,"P",,0,,0,,A
U335Z1,"Libuš",50.00787,14.46300,"B",,0,,0,,A
U335Z2P,"Libuš",50.00834,14.46275,"P",,0,,0,,B
U335Z2,"Libuš",50.00834,14.46275,"B",,0,,0,,B
U336Z1P,"Nové náměstí",50.03110,14.59935,"P",,0,,0,,A
U336Z1,"Nové náměstí",50.03110,14.59935,"B",,0,,0,,A
U336Z2P,"Nové náměstí",50.03214,14.59813,"P",,0,,0,,B
U336Z2,"Nové náměstí",50.03214,14.59813,"B",,0,,0,,B
U336Z3P,"Nové náměstí",50.03255,14.59728,"P",,0,,0,,C
U336Z3,"Nové náměstí",50.03255,14.59728,"B",,0,,0,,C
U336Z4P,"Nové náměstí",50.03093,14.59726,"P",,0,,0,,D
U337Z3P,"Lihovar",50.05029,14.41014,"P",,0,,0,,C
U337Z3,"Lihovar",50.05029,14.41014,"0",,0,,0,,C
U337Z4P,"Lihovar",50.05077,14.41081,"P",,0,,0,,D
U337Z4,"Lihovar",50.05077,14.41081,"0",,0,,0,,D
U337Z7P,"Lihovar",50.04924,14.40804,"P",,0,,1,,G
U337Z8P,"Lihovar",50.04861,14.40852,"P",,0,,1,,H
U337Z11P,"Lihovar",50.04865,14.41084,"P",,0,,0,,K
U338Z1P,"Jakobiho",50.03308,14.55935,"P",,0,,0,,A
U338Z1,"Jakobiho",50.03308,14.55935,"0",,0,,0,,A
U338Z2P,"Jakobiho",50.03342,14.55977,"P",,0,,0,,B
U338Z2,"Jakobiho",50.03342,14.55977,"0",,0,,0,,B
U339Z1P,"Lipanská",50.08392,14.45371,"P",,0,,2,,A
U339Z2P,"Lipanská",50.08401,14.45316,"P",,0,,2,,B
U340Z1P,"Lipany",49.99942,14.61776,"P",,0,,0,,A
U340Z2P,"Lipany",49.99939,14.61795,"P",,0,,0,,B
U341Z1P,"Škola Lipence",49.96068,14.35610,"P",,0,,0,,A
U341Z2P,"Škola Lipence",49.96068,14.35635,"P",,0,,0,,B
U342Z1P,"Lipnická",50.11311,14.56017,"P",,0,,0,,A
U342Z2P,"Lipnická",50.11200,14.55855,"P",,0,,0,,B
U343Z1P,"Lísek",50.04262,14.45633,"P",,0,,0,,A
U343Z2P,"Lísek",50.04268,14.45710,"P",,0,,0,,B
U344Z1P,"Litochlebské náměstí",50.03150,14.50542,"P",,0,,0,,A
U344Z2P,"Litochlebské náměstí",50.03192,14.50502,"P",,0,,0,,B
U344Z3P,"Litochlebské náměstí",50.03240,14.50763,"P",,0,,0,,C
U344Z4P,"Litochlebské náměstí",50.03217,14.50727,"P",,0,,0,,D
U345Z1P,"Katovická",50.13213,14.42790,"P",,0,,0,,A
U345Z2P,"Katovická",50.13209,14.42825,"P",,0,,0,,B
U346Z1P,"Lohenická",50.14955,14.58782,"P",,0,,0,,A
U346Z1,"Lohenická",50.14955,14.58782,"B",,0,,0,,A
U346Z2P,"Lohenická",50.14852,14.58595,"P",,0,,0,,B
U346Z2,"Lohenická",50.14852,14.58595,"B",,0,,0,,B
U347Z1P,"Lochkov",50.00319,14.35257,"P",,0,,0,,A
U347Z1,"Lochkov",50.00319,14.35257,"0",,0,,0,,A
U347Z2P,"Lochkov",50.00278,14.35290,"P",,0,,0,,B
U347Z2,"Lochkov",50.00278,14.35290,"0",,0,,0,,B
U348Z1P,"Multiaréna Praha",50.10310,14.49335,"P",,0,,1,,A
U348Z2P,"Multiaréna Praha",50.10268,14.49583,"P",,0,,1,,B
U349Z1P,"Lomnická",50.08752,14.56355,"P",,0,,0,,A
U349Z2P,"Lomnická",50.08767,14.56254,"P",,0,,0,,B
U350Z1P,"Lotyšská",50.10349,14.39491,"P",,0,,1,,A
U350Z2P,"Lotyšská",50.10418,14.39503,"P",,0,,1,,B
U350Z3P,"Lotyšská",50.10523,14.39495,"P",,0,,0,,C
U350Z3,"Lotyšská",50.10523,14.39495,"0",,0,,0,,C
U350Z4P,"Lotyšská",50.10485,14.39474,"P",,0,,0,,D
U350Z4,"Lotyšská",50.10485,14.39474,"0",,0,,0,,D
U351Z1P,"Poliklinika Prosek",50.12824,14.49257,"P",,0,,0,,A
U351Z2P,"Poliklinika Prosek",50.12822,14.49213,"P",,0,,0,,B
U352Z1P,"Lysolaje",50.12693,14.36675,"P",,0,,0,,A
U352Z1,"Lysolaje",50.12693,14.36675,"B",,0,,0,,A
U352Z2P,"Lysolaje",50.12674,14.36730,"P",,0,,0,,B
U352Z3P,"Lysolaje",50.12650,14.36818,"P",,0,,0,,C
U352Z3,"Lysolaje",50.12650,14.36818,"B",,0,,0,,C
U353Z1P,"Metodějova",50.02616,14.52144,"P",,0,,0,,A
U353Z2P,"Metodějova",50.02616,14.52082,"P",,0,,0,,B
U354Z1P,"Jana Masaryka",50.07351,14.44068,"P",,0,,1,,A
U354Z2P,"Jana Masaryka",50.07307,14.44149,"P",,0,,1,,B
U355Z1P,"Malá Chuchle",50.02481,14.39448,"P",,0,,0,,A
U355Z1,"Malá Chuchle",50.02481,14.39448,"0",,0,,0,,A
U355Z2P,"Malá Chuchle",50.02517,14.39498,"P",,0,,0,,B
U355Z2,"Malá Chuchle",50.02517,14.39498,"0",,0,,0,,B
U356Z1P,"Archeologická",50.04357,14.33688,"P",,0,,0,,A
U356Z2P,"Archeologická",50.04467,14.33875,"P",,0,,0,,B
U357Z1P,"Malešická",50.08628,14.48200,"P",,0,,0,,A
U357Z2P,"Malešická",50.08673,14.48194,"P",,0,,0,,B
U358Z1P,"Malešická továrna",50.07730,14.52428,"P",,0,,1,,A
U358Z2P,"Malešická továrna",50.07718,14.52524,"P",,0,,1,,B
U358Z3P,"Malešická továrna",50.07705,14.52628,"P",,0,,0,,C
U358Z3,"Malešická továrna",50.07705,14.52628,"0",,0,,0,,C
U358Z4P,"Malešická továrna",50.07735,14.52591,"P",,0,,0,,D
U358Z4,"Malešická továrna",50.07735,14.52591,"0",,0,,0,,D
U359Z1P,"Malešické náměstí",50.08463,14.51038,"P",,0,,0,,A
U359Z2P,"Malešické náměstí",50.08477,14.51093,"P",,0,,0,,B
U359Z3P,"Malešické náměstí",50.08562,14.51224,"P",,0,,0,,C
U360Z1P,"Malostranská",50.09036,14.41010,"P",,0,,1,,A
U360Z2P,"Malostranská",50.09095,14.40999,"P",,0,,1,,B
U360Z3P,"Malostranská",50.09147,14.41020,"P",,0,,2,,C
U360Z10P,"Malostranská",50.09092,14.41004,"P",,0,,0,,J
U360Z101P,"Malostranská",50.09127,14.40933,"P",,0,U360S1,2,,1
U360Z102P,"Malostranská",50.09217,14.40910,"P",,0,U360S1,2,,2
U361Z1P,"Malostranské náměstí",50.08798,14.40433,"P",,0,,1,,A
U361Z2P,"Malostranské náměstí",50.08827,14.40448,"P",,0,,1,,B
U361Z4P,"Malostranské náměstí",50.08784,14.40461,"P",,0,,0,,D
U361Z6P,"Malostranské náměstí",50.08786,14.40424,"P",,0,,0,,F
U362Z1P,"Malovanka",50.08559,14.38250,"P",,0,,1,,A
U362Z2P,"Malovanka",50.08553,14.38165,"P",,0,,1,,B
U362Z9P,"Malovanka",50.08557,14.38335,"P",,0,,0,,I
U362Z10P,"Malovanka",50.08537,14.38318,"P",,0,,0,,J
U362Z12P,"Malovanka",50.08548,14.38078,"P",,0,,0,,L
U363Z1P,"Malvazinky",50.06497,14.38830,"P",,0,,0,,A
U363Z2P,"Malvazinky",50.06502,14.38860,"P",,0,,0,,B
U363Z3P,"Malvazinky",50.06490,14.38909,"P",,0,,0,,C
U363Z4P,"Malvazinky",50.06492,14.38921,"P",,0,,0,,D
U364Z1P,"Malý Břevnov",50.07591,14.33124,"P",,0,,1,,A
U364Z2P,"Malý Břevnov",50.07636,14.33361,"P",,0,,1,,B
U364Z3P,"Malý Břevnov",50.07623,14.33285,"P",,0,,0,,C
U364Z3,"Malý Břevnov",50.07623,14.33285,"B",,0,,0,,C
U364Z4P,"Malý Břevnov",50.07603,14.33248,"P",,0,,0,,D
U364Z4,"Malý Břevnov",50.07603,14.33248,"B",,0,,0,,D
U365Z1P,"Maniny",50.10335,14.45266,"P",,0,,1,,A
U365Z2P,"Maniny",50.10324,14.45387,"P",,0,,1,,B
U366Z1P,"Marjánka",50.08454,14.37590,"P",,0,,1,,A
U366Z2P,"Marjánka",50.08454,14.37549,"P",,0,,1,,B
U367Z1P,"Průmstav",50.04704,14.57518,"P",,0,,0,,A
U367Z1,"Průmstav",50.04704,14.57518,"B",,0,,0,,A
U367Z2P,"Průmstav",50.04706,14.57551,"P",,0,,0,,B
U367Z2,"Průmstav",50.04706,14.57551,"B",,0,,0,,B
U368Z1P,"Obchodní centrum Čakovice",50.14965,14.50765,"P",,0,,0,,A
U368Z1,"Obchodní centrum Čakovice",50.14965,14.50765,"B",,0,,0,,A
U368Z2P,"Obchodní centrum Čakovice",50.14984,14.50814,"P",,0,,0,,B
U368Z2,"Obchodní centrum Čakovice",50.14984,14.50814,"B",,0,,0,,B
U368Z3P,"Obchodní centrum Čakovice",50.15042,14.50888,"P",,0,,0,,C
U369Z1P,"Sídliště Písnice",50.00061,14.46649,"P",,0,,0,,A
U369Z1,"Sídliště Písnice",50.00061,14.46649,"B",,0,,0,,A
U369Z2P,"Sídliště Písnice",50.00120,14.46660,"P",,0,,0,,B
U369Z2,"Sídliště Písnice",50.00120,14.46660,"B",,0,,0,,B
U369Z3P,"Sídliště Písnice",50.00077,14.46642,"P",,0,,0,,C
U370Z1P,"Dolní Šárka",50.11555,14.37425,"P",,0,,0,,A
U370Z2P,"Dolní Šárka",50.11590,14.37369,"P",,0,,0,,B
U371Z1P,"Krakov",50.12769,14.41680,"P",,0,,0,,A
U371Z2P,"Krakov",50.12786,14.41730,"P",,0,,0,,B
U372Z1P,"Naskové",50.06336,14.36087,"P",,0,,0,,A
U372Z2P,"Naskové",50.06340,14.36020,"P",,0,,0,,B
U373Z1P,"Mezi Hřbitovy",50.08166,14.47174,"P",,0,,1,,A
U373Z2P,"Mezi Hřbitovy",50.08223,14.47162,"P",,0,,1,,B
U373Z3P,"Mezi Hřbitovy",50.08265,14.47212,"P",,0,,0,,C
U373Z4P,"Mezi Hřbitovy",50.08275,14.47250,"P",,0,,0,,D
U374Z1P,"Měděnecká",50.14968,14.44885,"P",,0,,0,,A
U374Z2P,"Měděnecká",50.14971,14.44851,"P",,0,,0,,B
U375Z1P,"Měchenická",50.04996,14.48885,"P",,0,,0,,A
U375Z2P,"Měchenická",50.05027,14.48822,"P",,0,,0,,B
U376Z1P,"Michelská",50.05507,14.45383,"P",,0,,1,,A
U376Z2P,"Michelská",50.05504,14.45410,"P",,0,,1,,B
U376Z3P,"Michelská",50.05409,14.45246,"P",,0,,0,,C
U376Z4P,"Michelská",50.05468,14.45303,"P",,0,,0,,D
U377Z1P,"U Labutě",50.03614,14.45612,"P",,0,,0,,A
U377Z2P,"U Labutě",50.03547,14.45611,"P",,0,,0,,B
U378Z1P,"Ústavy Akademie věd",50.01793,14.46695,"P",,0,,0,,A
U378Z2P,"Ústavy Akademie věd",50.01802,14.46682,"P",,0,,0,,B
U379Z1P,"Mikulova",50.03185,14.51466,"P",,0,,0,,A
U379Z2P,"Mikulova",50.03194,14.51383,"P",,0,,0,,B
U380Z1P,"Maškův mlýn",49.99885,14.31850,"P",,0,,0,,A
U380Z2P,"Maškův mlýn",49.99890,14.31850,"P",,0,,0,,B
U381Z1P,"Mokrá",50.03355,14.50424,"P",,0,,0,,A
U381Z2P,"Mokrá",50.03357,14.50472,"P",,0,,0,,B
U382Z1P,"Křeslice",50.02338,14.56520,"P",,0,,0,,A
U382Z2P,"Křeslice",50.02350,14.56497,"P",,0,,0,,B
U383Z1P,"Reinerova",50.07484,14.31030,"P",,0,,0,,A
U383Z2P,"Reinerova",50.07359,14.30999,"P",,0,,0,,B
U384Z1P,"Miškovice",50.15602,14.54200,"P",,0,,0,,A
U384Z2P,"Miškovice",50.15591,14.54086,"P",,0,,0,,B
U384Z2,"Miškovice",50.15591,14.54086,"B",,0,,0,,B
U384Z3P,"Miškovice",50.15561,14.54181,"P",,0,,0,,C
U385Z1P,"Pankrác",50.05187,14.43817,"P",,0,,0,,A
U385Z2P,"Pankrác",50.05160,14.43799,"P",,0,,0,,B
U385Z3P,"Pankrác",50.05132,14.43973,"P",,0,,0,,C
U385Z4P,"Pankrác",50.05250,14.43911,"P",,0,,0,,D
U385Z101P,"Pankrác",50.05145,14.43944,"P",,0,U385S1,1,,1
U385Z102P,"Pankrác",50.05060,14.43993,"P",,0,U385S1,1,,2
U386Z1P,"Modrá škola",50.03043,14.52433,"P",,0,,0,,A
U386Z2P,"Modrá škola",50.03197,14.52315,"P",,0,,0,,B
U386Z12P,"Modrá škola",50.03197,14.52315,"P",,0,,0,,B
U387Z1P,"Pobřežní cesta",50.03421,14.40745,"P",,0,,1,,A
U387Z2P,"Pobřežní cesta",50.03360,14.40794,"P",,0,,1,,B
U387Z3P,"Pobřežní cesta",50.03395,14.40785,"P",,0,,0,,C
U387Z4P,"Pobřežní cesta",50.03413,14.40812,"P",,0,,0,,D
U388Z1P,"Nádraží Modřany",50.00459,14.40331,"P",,0,,1,,A
U388Z2P,"Nádraží Modřany",50.00394,14.40337,"P",,0,,1,,B
U388Z3P,"Nádraží Modřany",50.00402,14.40365,"P",,0,,0,,C
U388Z3,"Nádraží Modřany",50.00402,14.40365,"0",,0,,0,,C
U388Z4P,"Nádraží Modřany",50.00416,14.40374,"P",,0,,0,,D
U388Z4,"Nádraží Modřany",50.00416,14.40374,"0",,0,,0,,D
U388Z11P,"Nádraží Modřany",50.00233,14.40280,"P",,0,,0,,K
U389Z1P,"Průmyslová",50.07241,14.53547,"P",,0,,0,,A
U389Z1,"Průmyslová",50.07241,14.53547,"0",,0,,0,,A
U389Z2P,"Průmyslová",50.07261,14.53580,"P",,0,,0,,B
U389Z2,"Průmyslová",50.07261,14.53580,"0",,0,,0,,B
U391Z1P,"Vršovické náměstí",50.06916,14.45422,"P",,0,,1,,A
U391Z2P,"Vršovické náměstí",50.06903,14.45488,"P",,0,,1,,B
U392Z1P,"Most Závodu míru",49.97268,14.39511,"P",,0,,0,,A
U392Z1,"Most Závodu míru",49.97268,14.39511,"B",,0,,0,,A
U392Z2P,"Most Závodu míru",49.97286,14.39494,"P",,0,,0,,B
U392Z2,"Most Závodu míru",49.97286,14.39494,"B",,0,,0,,B
U394Z1P,"Motol",50.06767,14.33652,"P",,0,,1,,A
U394Z2P,"Motol",50.06771,14.33568,"P",,0,,1,,B
U394Z3P,"Motol",50.06872,14.33522,"P",,0,,0,,C
U394Z3,"Motol",50.06872,14.33522,"0",,0,,0,,C
U394Z4P,"Motol",50.06870,14.33542,"P",,0,,0,,D
U394Z4,"Motol",50.06870,14.33542,"0",,0,,0,,D
U395Z1P,"Krematorium Motol",50.06623,14.32646,"P",,0,,1,,A
U395Z2P,"Krematorium Motol",50.06593,14.32569,"P",,0,,1,,B
U395Z3P,"Krematorium Motol",50.06560,14.32554,"P",,0,,0,,C
U395Z3,"Krematorium Motol",50.06560,14.32554,"0",,0,,0,,C
U395Z4P,"Krematorium Motol",50.06569,14.32486,"P",,0,,0,,D
U395Z4,"Krematorium Motol",50.06569,14.32486,"0",,0,,0,,D
U396Z1P,"U Waltrovky",50.05865,14.37138,"P",,0,,0,,A
U396Z2P,"U Waltrovky",50.05900,14.37356,"P",,0,,0,,B
U396Z3P,"U Waltrovky",50.05853,14.37408,"P",,0,,0,,C
U396Z4P,"U Waltrovky",50.05850,14.37417,"P",,0,,0,,D
U397Z1P,"V Sedlci",50.12825,14.39464,"P",,0,,0,,A
U397Z2P,"V Sedlci",50.12815,14.39492,"P",,0,,0,,B
U398Z1P,"Murmanská",50.07307,14.48072,"P",,0,,0,,A
U398Z2P,"Murmanská",50.07378,14.47828,"P",,0,,0,,B
U399Z1P,"Radonická",50.15483,14.53840,"P",,0,,0,,A
U399Z1,"Radonická",50.15483,14.53840,"B",,0,,0,,A
U399Z2P,"Radonická",50.15481,14.53770,"P",,0,,0,,B
U399Z2,"Radonická",50.15481,14.53770,"B",,0,,0,,B
U400Z1P,"Muzeum",50.07884,14.43246,"P",,0,,2,,A
U400Z2P,"Muzeum",50.07876,14.43250,"P",,0,,1,,B
U400Z3P,"Muzeum",50.08022,14.43127,"P",,0,,0,,C
U400Z101P,"Muzeum",50.07908,14.43201,"P",,0,U400S1,1,U400L4,1
U400Z102P,"Muzeum",50.07988,14.43131,"P",,0,U400S1,1,U400L4,2
U400Z121P,"Muzeum",50.07991,14.43061,"P",,0,U400S1,1,U400L2,1
U400Z122P,"Muzeum",50.08057,14.43156,"P",,0,U400S1,1,U400L2,2
U401Z1P,"Myslíkova",50.07817,14.41905,"P",,0,,1,,A
U401Z2P,"Myslíkova",50.07796,14.41795,"P",,0,,1,,B
U402Z1P,"Na Blanici",50.03701,14.58323,"P",,0,,0,,A
U402Z1,"Na Blanici",50.03701,14.58323,"B",,0,,0,,A
U402Z2P,"Na Blanici",50.03677,14.58242,"P",,0,,0,,B
U402Z2,"Na Blanici",50.03677,14.58242,"B",,0,,0,,B
U403Z1P,"Na Groši",50.05297,14.52402,"P",,0,,1,,A
U403Z2P,"Na Groši",50.05291,14.52377,"P",,0,,1,,B
U403Z7P,"Na Groši",50.05280,14.52366,"P",,0,,0,,G
U403Z8P,"Na Groši",50.05305,14.52419,"P",,0,,0,,H
U404Z1P,"Na Homoli",50.07631,14.53041,"P",,0,,1,,A
U404Z2P,"Na Homoli",50.07614,14.53067,"P",,0,,1,,B
U404Z3P,"Na Homoli",50.07617,14.53021,"P",,0,,0,,C
U404Z3,"Na Homoli",50.07617,14.53021,"0",,0,,0,,C
U404Z4P,"Na Homoli",50.07649,14.53039,"P",,0,,0,,D
U404Z4,"Na Homoli",50.07649,14.53039,"0",,0,,0,,D
U405Z1P,"Výstaviště Letňany",50.12867,14.51165,"P",,0,,0,,A
U405Z1,"Výstaviště Letňany",50.12867,14.51165,"0",,0,,0,,A
U405Z2P,"Výstaviště Letňany",50.12844,14.51178,"P",,0,,0,,B
U405Z2,"Výstaviště Letňany",50.12844,14.51178,"0",,0,,0,,B
U406Z1P,"Na Hřebenech",50.05182,14.42845,"P",,0,,0,,A
U406Z2P,"Na Hřebenech",50.05147,14.42806,"P",,0,,0,,B
U407Z1P,"Libošovická",50.11090,14.59990,"P",,0,,0,,A
U407Z2P,"Libošovická",50.11148,14.59908,"P",,0,,0,,B
U408Z1P,"Třebešovská",50.11562,14.62592,"P",,0,,0,,A
U408Z2P,"Třebešovská",50.11545,14.62622,"P",,0,,0,,B
U409Z1P,"Na Košíku",50.04713,14.51497,"P",,0,,0,,A
U409Z2P,"Na Košíku",50.04708,14.51556,"P",,0,,0,,B
U410Z1P,"Do Rybníčků",50.14965,14.44520,"P",,0,,0,,A
U411Z1P,"Na Pramenech",50.14861,14.49704,"P",,0,,0,,A
U411Z2P,"Na Pramenech",50.14874,14.49730,"P",,0,,0,,B
U412Z1P,"Na Lysinách",50.02231,14.41244,"P",,0,,0,,A
U412Z2P,"Na Lysinách",50.02232,14.41288,"P",,0,,0,,B
U413Z1P,"Na Míčánkách",50.07125,14.46484,"P",,0,,0,,A
U413Z2P,"Na Míčánkách",50.07100,14.46346,"P",,0,,0,,B
U414Z1P,"Na Mlýnku",50.11193,14.37332,"P",,0,,0,,A
U414Z2P,"Na Mlýnku",50.11193,14.37357,"P",,0,,0,,B
U415Z1P,"Pod Dálnicí",50.04518,14.46125,"P",,0,,0,,A
U415Z1,"Pod Dálnicí",50.04518,14.46125,"0",,0,,0,,A
U415Z2P,"Pod Dálnicí",50.04482,14.46194,"P",,0,,0,,B
U416Z1P,"Na Padesátníku",50.10222,14.28945,"P",,0,,0,,A
U416Z1,"Na Padesátníku",50.10222,14.28945,"B",,0,,0,,A
U416Z2P,"Na Padesátníku",50.10228,14.28925,"P",,0,,0,,B
U416Z2,"Na Padesátníku",50.10228,14.28925,"B",,0,,0,,B
U417Z1P,"Nad Pahorkem",50.04286,14.48778,"P",,0,,0,,A
U418Z1P,"Na Palouku",50.08033,14.48865,"P",,0,,0,,A
U418Z2P,"Na Palouku",50.08054,14.48853,"P",,0,,0,,B
U419Z1P,"Na Parcelách",50.11050,14.33560,"P",,0,,0,,A
U419Z1,"Na Parcelách",50.11050,14.33560,"B",,0,,0,,A
U419Z2P,"Na Parcelách",50.11052,14.33497,"P",,0,,0,,B
U419Z2,"Na Parcelách",50.11052,14.33497,"B",,0,,0,,B
U420Z1P,"Na Pastvinách",50.10098,14.34457,"P",,0,,0,,A
U420Z2P,"Na Pastvinách",50.10074,14.34455,"P",,0,,0,,B
U421Z1,"Na Plácku",49.96590,14.39435,"B",,0,,0,,A
U421Z2,"Na Plácku",49.96623,14.39453,"B",,0,,0,,B
U422Z1P,"Jemnická",50.04947,14.45892,"P",,0,,0,,A
U422Z2P,"Jemnická",50.04935,14.45923,"P",,0,,0,,B
U423Z1,"Betáň",50.00718,14.47962,"B",,0,,0,,A
U423Z2,"Betáň",50.00739,14.47978,"B",,0,,0,,B
U424Z1P,"Chodovská tvrz",50.03295,14.50042,"P",,0,,0,,A
U424Z2P,"Chodovská tvrz",50.03350,14.49978,"P",,0,,0,,B
U425Z1P,"Na Santince",50.10702,14.38858,"P",,0,,0,,A
U425Z2P,"Na Santince",50.10687,14.38875,"P",,0,,0,,B
U426Z1P,"Na Sklonku",50.06687,14.36382,"P",,0,,0,,A
U426Z2P,"Na Sklonku",50.06687,14.36463,"P",,0,,0,,B
U427Z1P,"Na Smetance",50.07995,14.43765,"P",,0,,0,,A
U427Z2P,"Na Smetance",50.08005,14.43812,"P",,0,,0,,B
U428Z1P,"Na Srpečku",50.03798,14.39987,"P",,0,,0,,A
U428Z2P,"Na Srpečku",50.03785,14.40005,"P",,0,,0,,B
U429Z1P,"Na Strži",50.04352,14.43750,"P",,0,,0,,A
U429Z2P,"Na Strži",50.04326,14.43835,"P",,0,,0,,B
U429Z3P,"Na Strži",50.04253,14.43858,"P",,0,,0,,C
U429Z5P,"Na Strži",50.04400,14.43921,"P",,0,,0,,E
U430Z1P,"Na Štamberku",50.14657,14.47863,"P",,0,,0,,A
U430Z2P,"Na Štamberku",50.14672,14.48180,"P",,0,,0,,B
U431Z1P,"Pekárenská",50.04945,14.46395,"P",,0,,0,,A
U432Z1P,"Na Vaňhově",50.08009,14.62611,"P",,0,,0,,A
U432Z2P,"Na Vaňhově",50.08020,14.62721,"P",,0,,0,,B
U433Z1P,"Na Veselí",50.05624,14.44122,"P",,0,,2,,A
U433Z2P,"Na Veselí",50.05681,14.44146,"P",,0,,2,,B
U433Z3P,"Na Veselí",50.05455,14.43886,"P",,0,,0,,C
U433Z4P,"Na Veselí",50.05475,14.43901,"P",,0,,0,,D
U434Z1P,"Na Viničkách",49.98005,14.35218,"P",,0,,0,,A
U434Z1,"Na Viničkách",49.98005,14.35218,"B",,0,,0,,A
U435Z1P,"Na Vrchách",50.03945,14.58767,"P",,0,,0,,A
U435Z1,"Na Vrchách",50.03945,14.58767,"B",,0,,0,,A
U435Z2P,"Na Vrchách",50.03940,14.58788,"P",,0,,0,,B
U435Z2,"Na Vrchách",50.03940,14.58788,"B",,0,,0,,B
U435Z3P,"Na Vrchách",50.03786,14.58847,"P",,0,,0,,C
U435Z3,"Na Vrchách",50.03786,14.58847,"B",,0,,0,,C
U435Z4P,"Na Vrchách",50.03767,14.58791,"P",,0,,0,,D
U435Z4,"Na Vrchách",50.03767,14.58791,"B",,0,,0,,D
U436Z1P,"Na Vrstevnici",50.03665,14.43533,"P",,0,,0,,A
U436Z2P,"Na Vrstevnici",50.03643,14.43648,"P",,0,,0,,B
U437Z1P,"Slavínského",50.03316,14.38556,"P",,0,,0,,A
U437Z2P,"Slavínského",50.03273,14.38614,"P",,0,,0,,B
U437Z3P,"Slavínského",50.03331,14.38623,"P",,0,,0,,C
U438Z1P,"Krahulčí",50.10710,14.60406,"P",,0,,0,,A
U438Z2P,"Krahulčí",50.10775,14.60355,"P",,0,,0,,B
U439Z1P,"Nábřeží Kapitána Jaroše",50.09632,14.43130,"P",,0,,1,,A
U440Z1P,"Nad Habrovkou",50.10938,14.34497,"P",,0,,0,,A
U440Z1,"Nad Habrovkou",50.10938,14.34497,"B",,0,,0,,A
U440Z2P,"Nad Habrovkou",50.10878,14.34650,"P",,0,,0,,B
U440Z2,"Nad Habrovkou",50.10878,14.34650,"B",,0,,0,,B
U441Z1P,"Nad Havlem",50.03408,14.44862,"P",,0,,0,,A
U441Z2P,"Nad Havlem",50.03410,14.44901,"P",,0,,0,,B
U442Z1P,"Nad Jetelkou",50.11525,14.49664,"P",,0,,0,,A
U442Z2P,"Nad Jetelkou",50.11530,14.49567,"P",,0,,0,,B
U443Z1P,"Nad Klamovkou",50.07272,14.37683,"P",,0,,0,,A
U443Z2P,"Nad Klamovkou",50.07265,14.37771,"P",,0,,0,,B
U444Z1P,"Šafránecká",50.07588,14.34505,"P",,0,,0,,A
U444Z1,"Šafránecká",50.07588,14.34505,"0",,0,,0,,A
U444Z2P,"Šafránecká",50.07587,14.34442,"P",,0,,0,,B
U444Z2,"Šafránecká",50.07587,14.34442,"0",,0,,0,,B
U445Z1P,"Nad Parkánem",50.01254,14.63147,"P",,0,,0,,A
U445Z2P,"Nad Parkánem",50.01257,14.63140,"P",,0,,0,,B
